     2.11           OBSERVATION DATA    Mixed(MIXED)        RINEX VERSION / TYPE
cnvtToRINEX 3.02.0  convertToRINEX OPR  27-Oct-17 22:22 UTC PGM / RUN BY / DATE 
----------------------------------------------------------- COMMENT             
4324                                                        MARKER NAME         
4324                                                        MARKER NUMBER       
GNSS Observer       Trimble                                 OBSERVER / AGENCY   
4804144324          TRIMBLE R8 GNSS     3.50                REC # / TYPE / VERS 
00000000            TRM60158.00                             ANT # / TYPE        
  -606778.4452 -5460288.3286  3229316.7754                  APPROX POSITION XYZ 
        2.0001        0.0000        0.0000                  ANTENNA: DELTA H/E/N
     1     1     0                                          WAVELENGTH FACT L1/2
     8    C1    C2    C5    L1    L2    L5    P1    P2      # / TYPES OF OBSERV 
  2017    10    27    16    48   35.0000000     GPS         TIME OF FIRST OBS   
  2017    10    27    17    48   30.0000000     GPS         TIME OF LAST OBS    
     0                                                      RCV CLOCK OFFS APPL 
    18                                                      LEAP SECONDS        
    16                                                      # OF SATELLITES     
   G02   153     0     0   120    22     0     0    22      PRN / # OF OBS      
   G05   610   601     0   600   592     0     0     0      PRN / # OF OBS      
   G12   239   226     0   237   225     0     0     0      PRN / # OF OBS      
   G13   510     0     0   473   337     0     0   343      PRN / # OF OBS      
   G15   720   720     0   720   720     0     0     0      PRN / # OF OBS      
   G18   720     0     0   718   718     0     0   720      PRN / # OF OBS      
   G20   720     0     0   720   720     0     0   720      PRN / # OF OBS      
   G21   720     0     0   720   720     0     0   720      PRN / # OF OBS      
   G25   719   719   719   713   713   713     0     0      PRN / # OF OBS      
   G29   720   720     0   720   720     0     0     0      PRN / # OF OBS      
   R03   100     0     0   187    85     0    92    85      PRN / # OF OBS      
   R04   720     0     0  1440   720     0   720   720      PRN / # OF OBS      
   R05   720     0     0  1440   720     0   720   720      PRN / # OF OBS      
   R18   502     0     0   922   389     0   456   393      PRN / # OF OBS      
   R19   719     0     0  1438   719     0   719   719      PRN / # OF OBS      
   R20   544     0     0  1083   541     0   542   541      PRN / # OF OBS      
CARRIER PHASE MEASUREMENTS: PHASE SHIFTS REMOVED            COMMENT             
                                                            END OF HEADER       
 17 10 27 16 48 35.0000000  0 15G02G05G12G13G15G18G20G21G25G29R03R04
                                R05R18R19
  22929318.922 1                                                
                                
  21271389.070 2  21271382.172 8                    369371.73112    261088.94718
                                
  24056180.180 6  24056176.934 8                    535331.40016    401896.25618
                                
  22175040.891 5                                   -153489.10515
                                
  22356282.406 7  22356278.758 9                   -310589.16917   -229518.19819
                                
  24279405.625 4                                   -225060.64214   -157782.11256
                                  24279402.31646
  20369253.820 7                                    -70525.97717    -36853.49658
                                  20369249.62948
  24415801.875 5                                   -133969.49015    -94011.18356
                                  24415796.72346
  23021220.039 6  23021220.668 9  23021218.914 9    338284.60716    252421.97919
    242333.14319                
  20373252.930 7  20373248.922 9                   -125948.46817    -92357.63819
                                
  21020324.453 5                                    377469.94715    278627.01619
                  21020324.832 5  21020329.313 9
  19205751.484 8                                    -34321.43818    -24789.31719
                  19205752.098 7  19205756.473 9
  22109085.727 6                                   -282763.08616   -203965.84417
                  22109084.109 5  22109090.883 7
  20363419.625 5                                     82420.98515
                  20363419.063 4
  20367753.422 7                                   -135943.83217    -97434.55319
                  20367752.391 6  20367756.789 9
 17 10 27 16 48 40.0000000  0 14G05G12G13G15G18G20G21G25G29R03R04R05
                                R18R19
  21274091.102 3  21274082.676 8                    383560.691 3    272145.215 8
                                
  24059918.547 6  24059915.375 8                    554976.202 6    417203.860 8
                                
  22173696.336 5                                   -160540.822 5
                                
  22353806.680 7  22353803.555 9                   -323599.061 7   -239655.784 9
                                
  24277386.891 4                                   -235671.734 4   -166050.52245
                                  24277383.25045
  20369060.484 6                                    -71544.451 6    -37647.11248
                                  20369056.12148
  24414612.563 4                                   -140218.096 4    -98880.20846
                                  24414607.78546
  23024104.781 6  23024104.746 9  23024104.203 9    353446.062 6    264236.078 9
    253654.998 9                
  20372596.750 7  20372593.059 9                   -129396.680 7    -95044.571 9
                                
  21023811.297 5                                    396137.794 5    293146.448 9
                  21023811.324 4  21023816.340 9
  19205537.102 8                                    -35469.016 8    -25681.887 9
                  19205537.480 7  19205541.801 9
  22106001.641 6                                   -299247.583 6   -216787.115 7
                  22106000.609 5  22106007.004 7
  20364878.133 5                                     90208.884 5
                  20364877.570 4
  20366300.859 6                                   -143715.593 6   -103479.271 9
                  20366300.414 6  20366303.758 9
 17 10 27 16 48 45.0000000  0 14G05G12G13G15G18G20G21G25G29R03R04R05
                                R18R19
  21276798.570 3  21276787.957 8                    397777.158 3    283223.004 8
                                
  24063659.953 6  24063656.715 8                    574640.279 6    432526.464 8
                                
  22172360.313 5                                   -167561.018 5     -5249.85356
                                  22172355.46146
  22351336.523 7  22351332.438 9                   -336582.043 7   -249772.394 9
                                
  24275372.836 5                                   -246257.257 5   -174298.89945
                                  24275368.84445
  20368872.484 7                                    -72531.551 7    -38416.27548
                                  20368868.35248
  24413426.664 4                                   -146447.447 4   -103734.20946
                                  24413422.37546
  23026995.305 6  23026995.715 9  23026994.320 9    368634.896 6    276071.559 9
    264997.350 9                
  20371946.641 7  20371943.035 9                   -132812.334 7    -97706.123 9
                                
  21027305.531 5                                    414838.005 5    307691.069 8
                  21027305.207 5  21027309.449 8
  19205331.219 8                                    -36575.044 8    -26542.137 9
                  19205331.246 7  19205335.555 9
  22102923.273 6                                   -315702.133 6   -229585.121 8
                  22102923.301 5  22102929.953 8
  20366342.070 5                                     98029.787 5
                  20366341.625 4
  20364853.531 6                                   -151460.257 6   -109502.889 9
                  20364852.266 6  20364855.570 9
 17 10 27 16 48 50.0000000  0 14G05G12G13G15G18G20G21G25G29R03R04R05
                                R18R19
  21279505.508 4  21279498.813 8                    412020.989 4    294322.082 8
                                
  24067405.438 6  24067402.688 8                    594323.387 6    447863.994 8
                                
  22171030.781 5                                   -174549.807 5    -10695.69445
                                  22171026.48045
  22348870.969 7  22348867.402 9                   -349538.238 7   -259868.140 9
                                
  24273363.086 4                                   -256817.257 4   -182527.51945
                                  24273358.76245
  20368689.992 6                                    -73487.434 6    -39161.09848
                                  20368686.19948
  24412245.148 5                                   -152657.664 5   -108573.34246
                                  24412240.45346
  23029891.234 6  23029891.363 9  23029890.680 9    383851.056 6    287928.287 9
    276360.020 9                
  20371302.820 7  20371298.730 9                   -136195.525 7   -100342.379 9
                                
  21030805.688 6                                    433570.420 6    322260.734 8
                  21030804.422 6  21030808.570 8
  19205132.039 8                                    -37639.759 8    -27370.237 9
                  19205131.477 7  19205136.145 9
  22099850.758 6                                   -332126.834 6   -242359.845 7
                  22099850.434 5  22099856.867 7
  20367812.969 3                                    105883.295 3
                  20367812.645 2
  20363410.734 7                                   -159178.137 7   -115505.668 9
                  20363410.055 6  20363412.531 9
 17 10 27 16 48 55.0000000  0 14G05G12G13G15G18G20G21G25G29R03R04R05
                                R18R19
  21282216.859 1  21282213.582 8                    426291.35011    305442.04418
                                
  24071154.117 6  24071150.887 8                    614025.012 6    463215.927 8
                                
  22169706.930 4                                   -181507.890 4    -16117.63945
                                  22169702.06345
  22346410.398 7  22346407.156 9                   -362468.205 7   -269943.409 9
                                
  24271358.563 4                                   -267352.530 4   -190736.81045
                                  24271354.17245
  20368514.188 7                                    -74412.738 7    -39882.12248
                                  20368509.71948
  24411067.734 5                                   -158849.363 5   -113398.10446
                                  24411062.79346
  23032791.523 6  23032791.855 9  23032790.430 9    399093.813 6    299805.736 9
    287742.585 9                
  20370665.156 7  20370661.016 9                   -139546.948 7   -102953.861 9
                                
  21034309.273 6                                    452334.588 6    336855.091 8
                  21034310.004 5  21034314.242 8
  19204939.906 8                                    -38663.698 8    -28166.636 9
                  19204940.051 7  19204945.242 9
  22096784.797 5                                   -348522.346 5   -255111.891 8
                  22096783.297 5  22096789.941 8
  20369290.969 4                                    113769.093 4     41255.10416
                  20369290.879 3  20369304.133 6
  20361973.023 7                                   -166869.507 7   -121487.869 8
                  20361972.699 6  20361974.426 8
 17 10 27 16 49  0.0000000  0 14G05G12G13G15G18G20G21G25G29R03R04R05
                                R18R19
  21284941.477 2  21284934.203 8                    440588.200 2    316582.265 8
                                
  24074907.406 5  24074903.988 8                    633744.695 5    478581.841 8
                                
  22168387.852 4                                   -188435.788 4    -21515.90245
                                  22168383.46145
  22343955.219 7  22343951.359 9                   -375372.494 7   -279998.700 9
                                
  24269357.969 5                                   -277863.412 5   -198927.06745
                                  24269353.76245
  20368344.711 7                                    -75307.943 7    -40579.68648
                                  20368339.45348
  24409892.805 5                                   -165023.111 5   -118208.72946
                                  24409887.98446
  23035697.406 6  23035697.145 9  23035695.559 9    414362.644 6    311703.569 9
    299144.663 9                
  20370033.422 7  20370029.484 9                   -142867.101 7   -105540.996 9
                                
  21037821.313 5                                    471129.624 5    351473.452 9
                  21037820.988 5  21037825.605 9
  19204756.930 8                                    -39647.423 8    -28931.740 9
                  19204757.777 7  19204761.652 9
  22093723.398 5                                   -364889.203 5   -267841.703 8
                  22093722.250 5  22093728.348 8
  20370775.508 5                                    121686.512 5     47412.871 6
                  20370774.008 4  20370786.738 6
  20360540.586 7                                   -174535.188 7   -127450.036 9
                  20360539.203 6  20360541.906 9
 17 10 27 16 49  5.0000000  0 14G05G12G13G15G18G20G21G25G29R03R04R05
                                R18R19
  21287669.023 4  21287660.168 8                    454910.608 4    327742.583 8
                                
  24078660.906 5  24078660.281 8                    653481.509 5    493961.211 8
                                
  22167073.945 4                                   -195334.121 4    -26891.26945
                                  22167071.34045
  22341504.469 7  22341500.781 9                   -388251.751 7   -290034.496 9
                                
  24267362.391 4                                   -288350.641 4   -207098.96045
                                  24267358.39545
  20368179.523 7                                    -76173.815 7    -41254.39048
                                  20368174.35548
  24408720.016 5                                   -171179.601 5   -123005.98246
                                  24408715.97746
  23038607.742 6  23038607.715 9  23038605.465 9    429656.873 6    323621.169 9
    310565.659 9                
  20369407.016 7  20369403.109 9                   -146156.586 7   -108104.229 9
                                
  21041338.141 6                                    489954.947 6    366115.357 9
                  21041338.402 5  21041342.207 9
  19204581.086 8                                    -40591.679 8    -29666.188 9
                  19204580.523 8  19204584.488 9
  22090666.125 5                                   -381228.141 5   -280549.704 7
                  22090665.680 4  22090671.734 7
  20372263.125 4                                    129634.819 4     53594.988 7
                  20372261.625 3  20372273.926 7
  20359111.836 7                                   -182175.805 7   -133392.749 9
                  20359111.391 6  20359113.594 9
 17 10 27 16 49 10.0000000  0 14G05G12G13G15G18G20G21G25G29R03R04R05
                                R18R19
  21290397.406 5  21290390.148 8                    469258.238 5    338922.588 8
                                
  24082421.039 5  24082420.508 8                    673235.417 5    509353.909 8
                                
  22165768.609 4                                   -202202.969 4    -32243.69845
                                  22165764.55545
  22339058.242 7  22339054.328 9                   -401106.156 7   -300050.898 9
                                
  24265371.086 4                                   -298814.430 4   -215252.54045
                                  24265367.43045
  20368020.375 6                                    -77010.392 6    -41906.27348
                                  20368015.78548
  24407552.492 4                                   -177318.902 4   -127789.88746
                                  24407547.33246
  23041523.242 6  23041522.352 9  23041521.852 9    444976.313 6    335558.338 9
    322005.497 9                
  20368787.422 7  20368782.988 9                   -149415.569 7   -110643.702 9
                                
  21044859.359 5                                    508810.303 5    380780.620 9
                  21044859.504 5  21044864.734 9
  19204411.953 8                                    -41496.498 8    -30369.954 9
                  19204411.273 8  19204415.047 9
  22087615.328 6                                   -397539.177 6   -293236.059 7
                  22087614.766 5  22087619.246 7
  20373758.758 4                                    137613.942 4     59800.939 7
                  20373757.492 3  20373767.574 7
  20357687.477 7                                   -189791.299 7   -139315.890 9
                  20357686.563 6  20357689.574 9
 17 10 27 16 49 15.0000000  0 15G02G05G12G13G15G18G20G21G25G29R03R04
                                R05R18R19
  22944913.906 2                                    249313.28512
                                
  21293132.016 6  21293125.180 8                    483630.598 6    350121.868 8
                                
  24086183.000 4  24086182.348 8                    693005.877 4    524759.490 8
                                
  22164466.930 2                                   -209042.901 2    -37573.47145
                                  22164463.28145
  22336615.891 7  22336612.906 9                   -413936.226 7   -310048.341 9
                                
  24263383.828 3                                   -309255.196 3   -223388.15445
                                  24263381.19145
  20367866.547 6                                    -77818.365 6    -42535.85848
                                  20367861.94548
  24406386.203 4                                   -183441.664 4   -132560.85446
                                  24406381.66846
  23044443.008 6  23044442.211 9  23044442.363 9    460320.400 6    347514.717 9
    333463.693 9                
  20368172.875 7  20368168.348 9                   -152644.639 7   -113159.841 9
                                
  21048387.867 5                                    527695.312 5    395468.935 9
                  21048388.129 5  21048392.715 9
  19204249.750 8                                    -42362.486 8    -31043.511 9
                  19204249.543 8  19204253.477 9
  22084568.211 6                                   -413823.012 6   -305901.274 7
                  22084567.766 5  22084572.766 7
  20375258.883 4                                    145623.285 4     66030.567 7
                  20375257.266 2  20375267.039 7
  20356268.430 7                                   -197382.541 7   -145220.143 9
                  20356266.930 6  20356271.813 9
 17 10 27 16 49 20.0000000  0 15G02G05G12G13G15G18G20G21G25G29R03R04
                                R05R18R19
  22946880.383 1                                    259649.619 1
                                
  21295871.195 5  21295864.539 8                    498027.099 5    361339.806 8
                                
  24089947.313 4  24089947.227 8                    712792.083 4    540177.308 8
                                
  22163170.813 1                                   -215854.769 1    -42881.39145
                                  22163166.80145
  22334179.164 7  22334175.793 9                   -426742.570 7   -320027.332 9
                                
  24261402.617 3                                   -319673.836 3   -231506.67346
                                  24261398.32046
  20367718.938 7                                    -78598.354 7    -43143.64248
                                  20367713.14148
  24405224.148 3                                   -189548.536 3   -137319.39345
                                  24405219.96145
  23047367.500 6  23047366.734 9  23047366.352 9    475688.447 6    359489.879 9
    344939.838 9                
  20367564.047 7  20367559.594 9                   -155844.442 7   -115653.225 9
                                
  21051921.766 6                                    546609.177 6    410179.765 8
                  21051921.676 5  21051925.711 8
  19204095.906 8                                    -43190.521 8    -31687.503 9
                  19204095.582 7  19204099.324 9
  22081527.703 5                                   -430080.148 5   -318545.696 7
                  22081526.672 4  22081531.422 7
  20376764.313 4                                    153662.178 4     72282.966 7
                  20376764.574 3  20376774.250 7
  20354854.086 6                                   -204949.890 6   -151105.926 9
                  20354852.234 6  20354856.184 9
 17 10 27 16 49 25.0000000  0 15G02G05G12G13G15G18G20G21G25G29R03R04
                                R05R18R19
  22948849.570 1                                                
                                
  21298613.945 5  21298608.898 8                    512446.941 5    372576.078 8
                                
  24093717.398 3  24093715.586 8                    732593.472 3    555606.832 8
                                
  22161880.484 1                                   -222638.922 1    -48167.79745
                                  22161876.50845
  22331746.898 7  22331743.629 9                   -439525.915 7   -329988.366 9
                                
  24259424.266 3                                   -330070.772 3   -239608.15745
                                  24259420.15645
  20367575.227 7                                    -79350.956 7    -43730.08148
                                  20367569.98448
  24404064.633 3                                   -195640.075 3   -142066.05945
                                  24404060.98045
  23050296.703 6  23050296.137 9  23050295.805 9    491079.773 6    371483.111 9
    356433.349 9                
  20366960.492 7  20366956.066 9                   -159015.540 7   -118124.205 9
                                
  21055460.609 6                                    565551.273 6    424912.485 8
                  21055459.695 5  21055464.539 8
  19203948.305 8                                    -43981.132 8    -32302.422 9
                  19203947.980 7  19203951.824 9
  22078491.508 5                                   -446311.419 5   -331170.029 7
                  22078491.535 5  22078495.164 7
  20378275.930 4                                    161729.882 4     78557.820 7
                  20378275.723 3  20378287.301 7
  20353442.414 6                                   -212494.305 6   -156973.761 9
                  20353441.969 6  20353446.109 9
 17 10 27 16 49 30.0000000  0 15G02G05G12G13G15G18G20G21G25G29R03R04
                                R05R18R19
  22950824.203 2                                                
                                
  21301363.695 3  21301357.254 9                    526890.104 3    383830.479 9
                                
  24097489.359 5  24097486.449 8                    752409.887 5    571048.148 8
                                
  22160594.203 1                                   -229395.725 1    -53432.69545
                                  22160590.19545
  22329318.375 7  22329314.988 9                   -452286.284 7   -339931.492 9
                                
  24257449.203 4                                   -340446.266 4   -247692.90645
                                  24257446.01245
  20367437.070 7                                    -80076.377 7    -44295.33748
                                  20367431.89848
  24402909.086 4                                   -201716.502 4   -146800.93445
                                  24402904.73045
  23053229.195 6  23053229.563 9  23053228.574 9    506494.244 6    383494.398 9
    367944.160 9                
  20366362.594 7  20366357.840 9                   -162158.168 7   -120572.998 9
                                
  21059004.750 5                                    584521.265 5    439666.933 8
                  21059003.250 5  21059009.012 8
  19203807.148 8                                    -44734.349 8    -32888.231 9
                  19203807.762 7  19203811.211 9
  22075460.031 6                                   -462516.778 6   -343774.205 7
                  22075459.586 5  22075463.117 7
  20379792.289 3                                    169826.321 3     84855.019 7
                  20379792.082 2  20379804.109 7
  20352036.500 6                                   -220015.557 6   -162823.617 8
                  20352036.176 5  20352040.270 8
 17 10 27 16 49 35.0000000  0 15G02G05G12G13G15G18G20G21G25G29R03R04
                                R05R18R19
  22952802.094 2                                    290773.01712
                                
  21304115.234 3  21304110.121 9                    541356.043 3    395102.625 9
                                
  24101262.688 5  24101260.512 8                    772240.736 5    586500.779 8
                                
  22159314.242 2                                   -236125.572 2    -58676.81445
                                  22159309.53945
  22326894.242 7  22326891.090 9                   -465024.238 7   -349857.159 9
                                
  24255478.734 5                                   -350800.772 5   -255761.34146
                                  24255476.03946
  20367304.148 7                                    -80775.104 7    -44839.79048
                                  20367299.10248
  24401754.992 3                                   -207778.388 3   -151524.51045
                                  24401750.90645
  23056166.648 6  23056166.828 9  23056165.637 9    521931.326 6    395523.275 9
    379471.836 9                
  20365770.156 7  20365765.590 9                   -165272.781 7   -122999.975 9
                                
  21062552.977 6                                    603518.890 6    454442.858 8
                  21062551.711 5  21062557.074 8
  19203674.297 8                                    -45450.799 8    -33445.472 9
                  19203673.852 7  19203677.211 9
  22072434.461 6                                   -478696.890 6   -356358.752 7
                  22072432.727 5  22072436.898 7
  20381313.383 3                                    177950.992 3     91174.255 7
                  20381312.469 3  20381324.793 7
  20350634.461 6                                   -227514.517 6   -168656.144 9
                  20350634.488 6  20350638.613 9
 17 10 27 16 49 40.0000000  0 15G02G05G12G13G15G18G20G21G25G29R03R04
                                R05R18R19
  22954784.961 3                                    301184.664 3
                                
  21306872.852 2  21306866.871 8                    555844.507 2    406392.417 8
                                
  24105038.250 5  24105036.000 8                    792085.872 5    601964.584 8
                                
  22158039.453 2                                   -242828.520 2    -63899.91145
                                  22158033.60945
  22324475.203 7  22324471.523 9                   -477739.961 7   -359765.481 9
                                
  24253512.641 5                                   -361134.414 5   -263813.52945
                                  24253509.15645
  20367175.836 7                                    -81447.328 7    -45363.59248
                                  20367170.85248
  24400605.180 4                                   -213825.791 4   -156236.78145
                                  24400599.47345
  23059108.352 6  23059108.945 9  23059108.039 9    537390.859 6    407569.641 9
    391016.290 9                
  20365182.695 7  20365178.336 9                   -168359.590 7   -125405.271 9
                                
  21066106.461 5                                    622543.531 5    469239.826 8
                  21066105.898 5  21066111.527 8
  19203546.945 8                                    -46130.635 8    -33974.225 9
                  19203547.090 7  19203550.797 9
  22069410.789 6                                   -494851.795 6   -368923.647 7
                  22069411.051 5  22069415.898 7
  20382841.680 4                                    186103.758 4     97515.277 7
                  20382841.355 3  20382851.160 7
  20349238.063 6                                   -234991.110 6   -174471.259 9
                  20349236.328 6  20349241.141 9
 17 10 27 16 49 45.0000000  0 15G02G05G12G13G15G18G20G21G25G29R03R04
                                R05R18R19
  22956768.359 2                                    311613.519 2
                                
  21309632.680 1  21309628.426 8                    570354.464 1    417698.859 8
                                
  24108817.211 5  24108814.648 8                    811944.163 5    617438.540 8
                                
  22156769.320 2                                   -249505.880 2    -69103.04345
                                  22156763.21945
  22322059.008 7  22322055.316 9                   -490434.561 7   -369657.382 9
                                
  24251549.375 4                                   -371448.424 4   -271850.43045
                                  24251545.79345
  20367052.820 7                                    -82094.191 7    -45867.62748
                                  20367048.18848
  24399456.523 5                                   -219859.948 5   -160938.72745
                                  24399451.48045
  23062054.680 6  23062054.840 9  23062053.039 9    552871.620 6    419632.573 9
    402576.588 9                
  20364600.500 7  20364595.719 9                   -171419.771 7   -127789.833 9
                                
  21069665.063 5                                    641594.340 5    484057.119 8
                  21069664.500 5  21069669.859 8
  19203426.953 8                                    -46775.137 8    -34475.498 9
                  19203427.098 7  19203430.559 9
  22066392.813 5                                   -510982.599 5   -381469.802 7
                  22066392.367 5  22066397.676 7
  20384374.055 3                                    194283.473 3    103877.242 7
                  20384373.848 2  20384383.285 7
  20347843.695 6                                   -242446.625 6   -180269.997 9
                  20347842.781 6  20347847.586 9
 17 10 27 16 49 50.0000000  0 15G02G05G12G13G15G18G20G21G25G29R03R04
                                R05R18R19
  22958756.008 2                                    322059.695 2
                                
  21312400.586 5  21312393.777 9                    584885.821 5    429021.902 9
                                
  24112599.227 4  24112596.930 8                    831815.609 4    632922.695 8
                                
  22155502.422 4                                   -256157.495 4    -74286.08945
                                  22155497.89545
  22319648.047 7  22319643.797 9                   -503107.964 7   -379532.785 9
                                
  24249591.531 5                                   -381742.744 5   -279871.94046
                                  24249586.90646
  20366935.086 7                                    -82715.678 7    -46351.91148
                                  20366929.86348
  24398308.914 3                                   -225880.801 3   -165630.21946
                                  24398306.03546
  23065004.055 6  23065004.215 9  23065003.234 9    568373.648 6    431712.062 9
    414152.767 9                
  20364022.953 7  20364018.188 9                   -174453.180 7   -130153.531 9
                                
  21073229.313 5                                    660671.252 5    498894.676 8
                  21073229.574 5  21073234.461 8
  19203313.258 8                                    -47384.045 8    -34949.109 9
                  19203312.461 7  19203316.023 9
  22063379.938 6                                   -527089.511 6   -393997.396 7
                  22063379.848 5  22063385.242 7
  20385912.234 4                                    202489.972 4    110260.114 7
                  20385913.082 3  20385920.172 7
  20346454.109 6                                   -249880.870 6   -186052.195 9
                  20346453.078 6  20346458.164 9
 17 10 27 16 49 55.0000000  0 15G02G05G12G13G15G18G20G21G25G29R03R04
                                R05R18R19
  22960746.797 2                                    332523.307 2
                                
  21315167.898 2  21315163.203 8                    599438.643 2    440361.820 8
                                
  24116383.492 5  24116380.906 8                    851700.295 5    648417.284 8
                                
  22154241.805 4                                   -262783.264 4    -79448.98945
                                  22154236.65645
  22317239.961 7  22317236.297 9                   -515760.064 7   -389391.561 9
                                
  24247635.531 5                                   -392017.185 5   -287877.98145
                                  24247631.97745
  20366821.414 7                                    -83311.623 7    -46816.27948
                                  20366816.05948
  24397166.992 4                                   -231888.156 4   -170311.33045
                                  24397163.07845
  23067958.781 6  23067958.242 9  23067956.809 9    583897.101 6    443808.269 9
    425744.960 9                
  20363450.883 7  20363445.535 9                   -177459.657 7   -132496.236 9
                                
  21076797.695 5                                    679774.214 5    513752.560 8
                  21076797.133 5  21076802.332 8
  19203206.273 8                                    -47957.338 8    -35394.984 9
                  19203205.828 7  19203210.137 9
  22060371.750 6                                   -543172.210 6   -406506.146 8
                  22060371.660 5  22060375.746 8
  20387455.234 3                                    210723.627 3    116664.077 7
                  20387454.320 2  20387461.891 7
  20345068.547 6                                   -257293.730 6   -191817.749 9
                  20345067.398 6  20345071.750 9
 17 10 27 16 50  0.0000000  0 15G02G05G12G13G15G18G20G21G25G29R03R04
                                R05R18R19
  22962741.266 1                                    343003.197 1
                                
  21317940.258 2  21317936.305 9                    614011.938 2    451717.625 9
                                
  24120169.977 5  24120167.203 8                    871597.058 5    663921.229 8
                                
  22152985.172 4                                   -269384.349 4    -84592.68845
                                  22152980.78545
  22314836.516 7  22314833.152 9                   -528392.049 7   -399234.662 9
                                
  24245683.719 5                                   -402273.009 5   -295869.51645
                                  24245680.25445
  20366712.969 7                                    -83883.280 7    -47261.72948
                                  20366707.53948
  24396025.898 5                                   -237883.340 5   -174982.85945
                                  24396022.10545
  23070915.805 6  23070916.254 9  23070914.594 9    599440.713 6    455920.167 9
    437352.203 9                
  20362883.648 7  20362878.758 9                   -180440.466 7   -134818.950 9
                                
  21080371.297 5                                    698902.329 5    528629.963 8
                  21080369.914 5  21080375.820 8
  19203105.242 8                                    -48496.355 8    -35814.212 9
                  19203105.738 7  19203109.102 9
  22057367.289 6                                   -559231.815 6   -418996.947 7
                  22057366.375 5  22057371.699 7
  20389001.180 3                                    218983.071 3    123088.077 7
                  20389000.973 1  20389008.930 7
  20343686.500 7                                   -264686.482 7   -197567.672 9
                  20343685.820 6  20343690.066 9
 17 10 27 16 50  5.0000000  0 15G02G05G12G13G15G18G20G21G25G29R03R04
                                R05R18R19
  22964740.680 2                                    353499.631 2
                                
  21320716.234 1  21320713.684 9                    628605.856 1    463089.521 9
                                
  24123957.484 5  24123955.250 8                    891506.152 5    679434.836 8
                                
  22151734.633 4                                   -275960.465 4    -89716.91045
                                  22151729.15645
  22312436.359 7  22312432.898 9                   -541003.536 7   -409061.793 9
                                
  24243735.898 5                                   -412509.865 5   -303846.33146
                                  24243732.41446
  20366608.750 7                                    -84430.306 7    -47687.98048
                                  20366603.07848
  24394888.383 4                                   -243866.033 4   -179644.68845
                                  24394883.78545
  23073877.898 6  23073877.418 9  23073875.648 9    615004.842 6    468048.031 9
    448974.747 9                
  20362321.508 7  20362316.543 9                   -183395.198 7   -137121.339 9
                                
  21083949.164 5                                    718055.574 5    543526.932 9
                  21083949.543 5  21083953.938 9
  19203011.961 8                                    -49000.701 8    -36206.493 9
                  19203011.871 8  19203015.172 9
  22054367.781 6                                   -575268.117 6   -431469.609 7
                  22054367.691 6  22054371.336 7
  20390555.633 4                                    227268.874 4    129532.543 7
                  20390554.367 3  20390560.566 7
  20342308.992 7                                   -272058.805 7   -203301.716 9
                  20342307.258 6  20342311.441 9
 17 10 27 16 50 10.0000000  0 15G02G05G12G13G15G18G20G21G25G29R03R04
                                R05R18R19
  22966740.641 3                                    364011.870 3
                                
  21323501.281 5  21323494.012 8                    643219.620 5    474476.857 8
                                
  24127747.219 4  24127746.676 9                    911426.776 4    694957.396 9
                                
  22150486.430 4                                   -282512.350 4    -94822.30545
                                  22150483.09045
  22310040.336 7  22310036.789 9                   -553595.294 7   -418873.554 9
                                
  24241789.398 4                                   -422728.549 4   -311808.90946
                                  24241787.19946
  20366508.625 7                                    -84953.444 7    -48095.62148
                                  20366503.59448
  24393751.836 5                                   -249836.880 5   -184297.33545
                                  24393747.12945
  23076843.641 6  23076843.648 9  23076842.242 9    630588.672 6    480191.265 9
    460612.029 9                
  20361764.031 7  20361759.781 9                   -186324.695 7   -139404.060 9
                                
  21087532.109 6                                    737233.362 6    558442.944 9
                  21087530.844 5  21087536.855 9
  19202922.281 8                                    -49471.129 8    -36572.404 9
                  19202922.426 8  19202926.305 9
  22051370.289 6                                   -591281.838 6   -443924.771 7
                  22051370.902 5  22051375.445 7
  20392112.555 5                                    235579.905 5    135996.760 7
                  20392110.938 3  20392117.922 7
  20340934.828 7                                   -279411.391 7   -209020.384 9
                  20340933.328 6  20340937.918 9
 17 10 27 16 50 15.0000000  0 15G02G05G12G13G15G18G20G21G25G29R03R04
                                R05R18R19
  22968744.031 2                                    374539.469 2
                                
  21326282.125 5  21326279.688 9                    657852.764 5    485879.366 9
                                
  24131539.195 5  24131538.762 8                    931358.656 5    710488.738 8
                                
  22149244.289 5                                   -289040.425 5    -99909.13146
                                  22149240.77046
  22307647.297 7  22307644.973 9                   -566167.769 7   -428670.256 9
                                
  24239850.313 5                                   -432929.396 5   -319757.67145
                                  24239846.64545
  20366414.367 7                                    -85453.159 7    -48484.98448
                                  20366409.27348
  24392618.922 5                                   -255796.431 5   -188941.16946
                                  24392613.35246
  23079812.695 6  23079812.336 9  23079811.500 9    646191.739 6    492349.444 9
    472263.610 9                
  20361211.195 7  20361206.770 9                   -189229.383 7   -141667.452 9
                                
  21091119.453 4                                    756435.104 4    573377.657 8
                  21091117.250 3  21091123.824 8
  19202841.055 8                                    -49907.903 8    -36912.095 9
                  19202840.965 8  19202845.063 9
  22048379.688 5                                   -607273.300 5   -456362.511 7
                  22048378.188 4  22048384.367 7
  20393673.359 6                                    243916.015 6    142480.334 7
                  20393672.211 5  20393680.977 7
  20339562.266 6                                   -286744.785 6   -214724.150 9
                  20339561.469 6  20339567.160 9
 17 10 27 16 50 20.0000000  0 15G02G05G12G13G15G18G20G21G25G29R03R04
                                R05R18R19
  22970747.227 1                                    385082.188 1
                                
  21329072.398 6  21329066.973 9                    672505.244 6    497296.993 9
                                
  24135334.422 6  24135334.332 8                    951301.461 6    726028.557 8
                                
  22148006.930 5                                   -295544.850 5   -104977.52546
                                  22148003.09046
  22305258.617 7  22305255.582 9                   -578721.132 7   -438452.050 9
                                
  24237911.938 5                                   -443112.691 5   -327692.72446
                                  24237908.93046
  20366322.703 7                                    -85929.636 7    -48856.27348
                                  20366317.97748
  24391487.141 5                                   -261744.796 5   -193576.28746
                                  24391481.59846
  23082785.422 6  23082785.563 9  23082784.289 9    661813.904 6    504522.545 9
    483929.507 9                
  20360663.180 7  20360659.328 9                   -192109.371 7   -143911.600 9
                                
  21094711.039 4                                    775660.702 4    588330.863 8
                  21094709.422 4  21094714.367 8
  19202766.023 8                                    -50311.479 8    -37225.999 9
                  19202766.637 7  19202770.875 9
  22045392.117 5                                   -623242.929 5   -468783.341 7
                  22045390.617 4  22045398.098 7
  20395239.273 5                                    252276.860 5    148983.286 7
                  20395238.949 4  20395248.961 7
  20338195.492 6                                   -294058.889 6   -220412.910 9
                  20338193.758 6  20338199.262 9
 17 10 27 16 50 25.0000000  0 15G02G05G12G13G15G18G20G21G25G29R03R04
                                R05R18R19
  22972757.063 1                                    395639.889 1
                                
  21331863.742 6  21331858.934 9                    687176.642 6    508729.247 9
                                
  24139131.836 5  24139130.449 8                    971254.883 5    741576.731 8
                                
  22146771.516 4                                   -302026.001 4   -110027.80146
                                  22146769.73846
  22302873.156 7  22302870.754 9                   -591255.675 7   -448219.211 9
                                
  24235977.555 5                                   -453278.645 5   -335614.19446
                                  24235974.16846
  20366236.539 6                                    -86383.208 6    -49209.70248
                                  20366232.23848
  24390357.016 5                                   -267682.362 5   -198202.88846
                                  24390351.17246
  23085761.070 6  23085762.098 9  23085760.160 9    677454.754 6    516710.236 9
    495609.369 9                
  20360120.000 7  20360115.551 9                   -194965.040 7   -146136.793 9
                                
  21098306.414 6                                    794909.957 6    603302.511 8
                  21098306.090 5  21098310.672 8
  19202696.930 8                                    -50682.032 8    -37514.192 9
                  19202697.191 7  19202700.844 9
  22042408.438 5                                   -639190.730 5   -481187.182 7
                  22042407.406 4  22042413.750 7
  20396809.742 4                                    260662.180 4    155505.177 7
                  20396808.242 2  20396818.777 7
  20336832.094 6                                   -301354.321 6   -226087.120 9
                  20336830.008 6  20336835.656 9
 17 10 27 16 50 30.0000000  0 15G02G05G12G13G15G18G20G21G25G29R03R04
                                R05R18R19
  22974768.781 1                                                
                                
  21334659.016 6  21334654.172 9                    701866.741 6    520176.022 9
                                
  24142932.117 6  24142929.688 9                    991218.679 6    757132.908 9
                                
  22145544.383 5                                   -308483.845 5   -115059.88246
                                  22145541.14146
  22300491.578 6  22300489.180 9                   -603771.440 6   -457971.804 9
                                
  24234045.781 6                                   -463427.518 6   -343522.37746
                                  24234043.16046
  20366155.086 6                                    -86813.975 6    -49545.35448
                                  20366150.43448
  24389229.320 5                                   -273609.212 5   -202821.18146
                                  24389223.91446
  23088741.813 6  23088741.934 9  23088740.191 9    693114.182 6    528912.349 9
    507303.057 9                
  20359581.078 7  20359576.219 9                   -197796.481 7   -148343.130 9
                                
  21101907.461 6                                    814182.099 6    618291.940 8
                  21101907.723 6  21101910.996 8
  19202632.852 8                                    -51019.868 8    -37776.993 9
                  19202633.230 7  19202637.246 9
  22039428.125 5                                   -655117.180 5   -493574.399 7
                  22039428.035 4  22039434.422 7
  20398386.109 4                                    269071.917 4    162046.173 7
                  20398383.906 2  20398394.215 7
  20335470.781 6                                   -308631.076 6   -231746.854 9
                  20335470.457 6  20335475.285 9
 17 10 27 16 50 35.0000000  0 15G02G05G12G13G15G18G20G21G25G29R03R04
                                R05R18R19
  22976783.852 1                                                
                                
  21337457.133 6  21337453.133 9                    716575.617 6    531637.499 9
                                
  24146731.250 5  24146731.750 9                   1011192.933 5    772697.267 9
                                
  22144319.148 5                                   -314918.563 5   -120073.96146
                                  22144316.26646
  22298114.109 7  22298109.801 9                   -616268.535 7   -467709.816 9
                                
  24232117.805 6                                   -473559.259 6   -351417.26646
                                  24232115.27046
  20366077.320 6                                    -87222.069 6    -49863.34248
                                  20366072.64548
  24388103.000 5                                   -279525.357 5   -207431.21146
                                  24388097.48446
  23091724.852 6  23091725.957 9  23091724.711 9    708792.146 6    541128.948 9
    519010.606 9                
  20359046.328 7  20359042.059 9                   -200603.781 7   -150530.602 9
                                
  21105511.398 5                                    833477.600 5    633299.559 8
                  21105510.484 4  21105515.578 8
  19202575.953 8                                    -51324.900 8    -38014.210 9
                  19202576.566 7  19202580.199 9
  22036452.602 5                                   -671022.025 5   -505944.820 7
                  22036451.688 4  22036459.035 7
  20399967.164 5                                    277505.97915
                                
  20334114.445 6                                   -315889.263 6   -237392.066 9
                  20334113.766 6  20334118.664 9
 17 10 27 16 50 40.0000000  0 15G02G05G12G13G15G18G20G21G25G29R03R04
                                R05R18R19
  22978801.781 1                                    427400.60411
                                
  21340260.461 4  21340255.898 9                    731302.699 4    543113.151 9
                                
  24150534.758 6  24150534.734 9                   1031177.026 6    788269.248 9
                                
  22143098.609 2                                   -321330.726 2   -125070.32045
                                  22143096.13745
  22295739.406 7  22295735.711 9                   -628747.543 7   -477433.720 9
                                
  24230193.406 5                                   -483674.441 5   -359299.24945
                                  24230190.26645
  20366004.039 7                                    -87607.970 7    -50164.05848
                                  20365998.63348
  24386978.945 5                                   -285431.449 5   -212033.31846
                                  24386974.02046
  23094711.352 6  23094712.117 9  23094710.434 9    724487.979 6    553359.499 9
    530731.534 9                
  20358517.078 7  20358513.160 9                   -203387.396 7   -152699.678 9
                                
  21109119.594 5                                    852795.778 5    648324.842 8
                  21109119.504 5  21109123.859 8
  19202525.328 8                                    -51597.717 8    -38226.362 9
                  19202524.883 7  19202529.602 9
  22033483.563 6                                   -686905.844 6   -518298.891 7
                  22033483.117 5  22033488.633 7
  20401549.930 3                                    285963.755 3
                                
  20332761.461 6                                   -323129.174 6   -243023.093 9
                  20332760.430 5  20332765.641 9
 17 10 27 16 50 45.0000000  0 15G02G05G12G13G15G18G20G21G25G29R03R04
                                R05R18R19
  22980820.352 1                                    438015.545 1
                                
  21343064.773 2  21343061.918 9                    746047.354 2    554602.502 9
                                
  24154339.867 6  24154339.168 9                   1051170.496 6    803848.533 9
                                
  22141882.789 3                                   -327720.499 3   -130049.41845
                                  22141880.16045
  22293368.188 7  22293364.258 9                   -641208.854 7   -487143.831 9
                                
  24228271.305 6                                   -493773.525 6   -367168.66545
                                  24228268.13345
  20365934.742 7                                    -87972.136 7    -50447.82448
                                  20365929.52748
  24385856.695 5                                   -291327.849 5   -216627.89546
                                  24385852.14846
  23097701.867 6  23097702.348 9  23097700.281 9    740201.379 6    565603.707 9
    542465.574 9                
  20357991.813 7  20357987.586 9                   -206147.781 7   -154850.626 9
                                
  21112731.313 5                                    872136.123 5    663367.357 8
                  21112732.277 4  21112737.004 8
  19202479.086 8                                    -51838.712 8    -38413.804 9
                  19202479.699 7  19202485.070 9
  22030516.313 6                                   -702769.138 6   -530637.014 8
                  22030514.930 5  22030520.500 8
  20403138.156 2                                    294444.769 2
                  20403137.711 1
  20331410.656 6                                   -330351.569 6   -248640.484 9
                  20331409.859 6  20331414.992 9
 17 10 27 16 50 50.0000000  0 15G02G05G12G13G15G18G20G21G25G29R03R04
                                R05R18R19
  22982842.672 1                                    448643.74511
                                
  21345872.539 1  21345871.441 9                    760809.379 1    566105.333 9
                                
  24158146.109 6  24158146.008 9                   1071172.846 6    819434.780 9
                                
  22140669.188 1                                   -334088.415 1   -135011.39545
                                  22140668.23045
  22290999.820 7  22290996.832 9                   -653652.856 7   -496840.455 9
                                
  24226352.094 5                                   -503856.868 5   -375025.78646
                                  24226348.80546
  20365869.172 7                                    -88315.001 7    -50714.97748
                                  20365864.41048
  24384735.703 5                                   -297214.972 5   -221215.23046
                                  24384731.94946
  23100694.102 5  23100695.473 9  23100693.656 9    755931.852 5    577861.198 9
    554212.332 9                
  20357470.773 7  20357466.520 9                   -208885.404 7   -156983.851 9
                                
  21116349.258 5                                    891498.283 5    678426.794 8
                  21116349.051 4  21116353.508 8
  19202441.102 8                                    -52048.377 8    -38576.879 9
                  19202441.129 7  19202444.977 9
  22027550.648 6                                   -718612.270 6   -542959.445 8
                  22027550.441 5  22027557.086 8
  20404729.938 3                                    302948.681 3    169423.65817
                  20404731.020 2  20404740.047 7
  20330064.477 6                                   -337556.642 6   -254244.435 9
                  20330063.680 6  20330067.484 9
 17 10 27 16 50 55.0000000  0 15G02G05G12G13G15G18G20G21G25G29R03R04
                                R05R18R19
  22984870.523 1                                    459285.108 1
                                
  21348686.969 2  21348683.652 9                    775588.552 2    577621.520 9
                                
  24161954.063 6  24161953.598 9                   1091184.046 6    835027.909 9
                                
  22139459.328 1                                   -340434.703 1   -139956.60445
                                  22139461.06645
  22288635.328 7  22288631.234 9                   -666079.624 7   -506523.646 9
                                
  24224436.172 5                                   -513924.630 5   -382870.80646
                                  24224432.72746
  20365807.523 7                                    -88636.654 7    -50965.61048
                                  20365802.57448
  24383617.688 5                                   -303092.948 5   -225795.46346
                                  24383613.10546
  23103691.805 5  23103692.496 9  23103690.703 9    771679.295 5    590131.907 9
    565971.767 9                
  20356953.648 7  20356950.195 9                   -211600.266 7   -159099.319 9
                                
  21119970.750 5                                    910882.005 5    693502.993 8
                  21119970.543 4  21119974.602 8
  19202407.367 8                                    -52226.728 8    -38715.577 9
                  19202407.746 7  19202411.203 9
  22024589.555 5                                   -734435.481 5   -555266.372 8
                  22024589.699 4  22024597.680 8
  20406329.695 4                                    311475.436 4    176055.596 7
                  20406329.605 3  20406336.895 7
  20328719.875 6                                   -344744.585 6   -259835.064 9
                  20328720.020 6  20328723.813 9
 17 10 27 16 51  0.0000000  0 15G02G05G12G13G15G18G20G21G25G29R03R04
                                R05R18R19
  22986897.813 1                                    469939.596 1
                                
  21351502.016 1  21351499.184 9                    790384.570 1    589150.915 9
                                
  24165764.063 5  24165763.461 9                   1111203.897 5    850627.746 9
                                
  22138256.188 1                                                
                                  22138257.22345
  22286273.742 7  22286270.355 9                   -678489.377 7   -516193.577 9
                                
  24222524.391 6                                   -523976.960 6   -390703.79646
                                  24222519.73846
  20365750.617 7                                    -88937.245 7    -51199.84648
                                  20365745.36748
  24382499.805 5                                   -308961.988 5   -230368.72346
                                  24382496.39546
  23106691.781 5  23106692.051 9  23106690.340 9    787443.401 5    602415.646 9
    577743.678 9                
  20356441.531 7  20356437.523 9                   -214292.611 7   -161197.250 9
                                
  21123596.609 5                                    930287.081 5    708595.831 8
                  21123595.344 4  21123600.254 8
  19202379.641 8                                    -52374.068 8    -38830.179 9
                  19202379.785 7  19202383.492 9
  22021634.781 6                                   -750238.679 6   -567557.727 7
                  22021633.867 5  22021641.238 7
  20407930.344 3                                    320024.779 3    182705.056 7
                  20407930.840 1  20407940.262 7
  20327380.594 7                                   -351915.512 7   -265412.447 9
                  20327379.797 6  20327383.297 9
 17 10 27 16 51  5.0000000  0 15G02G05G12G13G15G18G20G21G25G29R03R04
                                R05R18R19
  22988927.867 1                                    480606.688 1
                                
  21354319.227 1  21354317.840 9                    805197.290 1    600693.311 9
                                
  24169574.578 5  24169574.055 9                   1131232.022 5    866234.088 9
                                
  22137059.336 1                                   -353062.98211   -149796.80255
                                  22137057.34045
  22283915.531 7  22283911.938 9                   -690882.362 7   -525850.450 9
                                
  24220614.547 5                                   -534014.199 5   -398525.00246
                                  24220609.58646
  20365697.453 7                                    -89217.168 7    -51417.95148
                                  20365692.10548
  24381385.313 5                                   -314822.401 5   -234935.30246
                                  24381381.53146
  23109695.250 5  23109695.402 9  23109693.535 9    803223.973 5    614712.181 9
    589527.850 9                
  20355933.711 7  20355929.211 9                   -216962.702 7   -163277.836 9
                                
  21127225.883 5                                    949713.266 5    723705.068 8
                  21127226.145 5  21127229.355 8
  19202358.266 8                                    -52490.678 8    -38920.867 9
                  19202358.645 7  19202362.703 9
  22018682.289 6                                   -766022.431 6   -579833.966 8
                  22018680.906 5  22018688.258 8
  20409538.164 2                                    328596.355 2    189371.853 7
                  20409535.141 1  20409547.957 7
  20326043.094 6                                   -359069.891 6   -270976.947 9
                  20326041.359 5  20326045.727 9
 17 10 27 16 51 10.0000000  0 15G02G05G12G13G15G18G20G21G25G29R03R04
                                R05R18R19
  22990961.188 1                                    491285.951 1
                                
  21357141.711 1  21357140.137 9                    820026.100 1    612248.263 9
                                
  24173388.297 5  24173387.211 8                   1151267.956 5    881846.476 8
                                
  22135862.484 1                                   -359345.812 1   -154692.47845
                                  22135861.67245
  22281560.266 7  22281556.707 9                   -703259.152 7   -535494.689 9
                                
  24218706.867 5                                   -544036.916 5   -406334.89846
                                  24218702.21146
  20365648.391 7                                    -89476.922 7    -51620.35048
                                  20365642.53548
  24380271.125 5                                   -320674.708 5   -239495.54546
                                  24380267.95346
  23112701.297 5  23112701.836 9  23112699.699 9    819020.373 5    627021.051 9
    601323.847 9                
  20355429.320 7  20355425.277 9                   -219611.112 7   -165341.546 9
                                
  21130856.945 5                                    969160.034 5    738830.354 8
                  21130857.910 4  21130860.949 8
  19202342.234 8                                    -52577.202 8    -38988.159 9
                  19202341.910 7  19202346.461 9
  22015732.227 6                                   -781787.049 6   -592095.332 8
                  22015731.902 5  22015739.855 8
  20411145.625 1                                    337189.755 1    196055.570 7
                  20411145.770 1  20411159.113 7
  20324708.453 6                                   -366208.064 6   -276528.871 9
                  20324707.070 6  20324711.582 9
 17 10 27 16 51 15.0000000  0 15G02G05G12G13G15G18G20G21G25G29R03R04
                                R05R18R19
  22992993.297 1                                    501977.43911
                                
  21359966.070 1  21359964.164 9                    834870.885 1    623815.602 9
                                
  24177203.047 5  24177201.586 9                   1171311.686 5    897464.909 9
                                
  22134670.500 1                                   -365607.830 1   -159571.97945
                                  22134670.32045
  22279208.297 7  22279204.715 9                   -715619.700 7   -545126.285 9
                                
  24216802.820 5                                   -554045.024 5   -414133.40446
                                  24216797.60246
  20365602.305 7                                    -89716.508 7    -51807.03648
                                  20365597.44148
  24379159.914 5                                   -326518.934 5   -244049.47746
                                  24379155.74246
  23115709.883 6  23115710.105 9  23115708.207 9    834832.622 6    639342.293 9
    613131.699 9                
  20354929.406 7  20354925.852 9                   -222237.841 7   -167388.344 9
                                
  21134494.375 5                                    988627.143 5    753971.439 8
                  21134493.227 3  21134498.367 8
  19202332.359 8                                    -52633.565 8    -39032.014 9
                  19202331.563 7  19202336.566 9
  22012786.867 6                                   -797532.819 6   -604342.021 8
                  22012785.836 5  22012793.797 8
  20412758.898 1                                    345804.619 1    202756.060 7
                  20412759.160 1  20412771.586 7
  20323377.523 7                                   -373330.093 7   -282068.226 9
                  20323375.789 6  20323380.391 9
 17 10 27 16 51 20.0000000  0 15G02G05G12G13G15G18G20G21G25G29R03R04
                                R05R18R19
  22995032.188 1                                    512681.133 1
                                
  21362794.664 1  21362792.281 9                    849731.948 1    635395.700 9
                                
  24181017.898 6  24181016.531 8                   1191363.164 6    913089.497 8
                                
  22133486.266 2                                   -371848.898 2   -164435.21545
                                  22133483.03545
  22276859.000 7  22276855.281 9                   -727963.892 7   -554745.108 9
                                
  24214901.000 5                                   -564038.393 5   -421920.44446
                                  24214895.20346
  20365560.680 7                                    -89935.820 7    -51977.91948
                                  20365555.37548
  24378049.469 5                                   -332354.956 5   -248597.06746
                                  24378045.34846
  23118721.625 5  23118722.547 9  23118720.449 9    850660.815 5    651675.910 9
    624951.406 9                
  20354432.953 7  20354429.813 9                   -224842.739 7   -169418.139 9
                                
  21138135.438 5                                   1008114.913 5    769128.577 8
                  21138135.113 4  21138139.020 8
  19202327.477 8                                    -52659.546 8    -39052.218 9
                  19202327.738 7  19202332.000 9
  22009844.555 6                                   -813259.378 6   -616573.779 8
                  22009843.523 4  22009851.680 8
  20414378.258 1                                    354441.69311    209473.78816
                  20414376.523 1  20414387.004 6
  20322048.078 6                                   -380435.872 6   -287594.907 9
                  20322047.516 6  20322051.930 9
 17 10 27 16 51 25.0000000  0 14G05G12G13G15G18G20G21G25G29R03R04R05
                                R18R19
  21365626.102 2  21365623.680 9                    864608.752 2    646987.985 9
                                
  24184834.945 6  24184833.297 8                   1211422.158 6    928719.813 8
                                
  22132298.938 1                                   -378069.650 1   -169282.44645
                                  22132299.64545
  22274512.477 7  22274509.355 9                   -740291.982 7   -564351.437 9
                                
  24213002.375 5                                   -574017.469 5   -429696.30646
                                  24212996.31646
  20365522.891 7                                    -90135.203 7    -52133.28348
                                  20365517.50448
  24376940.617 5                                   -338183.081 5   -253138.41146
                                  24376936.24646
  23121736.734 5  23121737.551 9  23121735.379 9    866504.653 5    664021.791 9
    636782.876 9                
  20353942.406 7  20353938.121 9                   -227426.106 7   -171431.148 9
                                
  21141780.156 5                                   1027622.905 5    784301.464 8
                  21141779.711 4  21141783.945 8
  19202327.406 8                                    -52655.575 8    -39049.126 9
                  19202327.902 7  19202332.754 9
  22006905.320 6                                   -828966.982 6   -628790.813 7
                  22006905.113 5  22006913.320 7
  20415999.961 1                                    363100.22011    216208.14816
                  20416000.691 1  20416007.535 6
  20320722.289 6                                   -387525.713 6   -293109.242 9
                  20320721.141 6  20320726.484 9
 17 10 27 16 51 30.0000000  0 14G05G12G13G15G18G20G21G25G29R03R04R05
                                R18R19
  21368459.461 3  21368457.258 9                    879500.413 3    658591.843 9
                                
  24188653.766 6  24188651.988 8                   1231487.733 6    944355.330 8
                                
  22131121.977 1                                   -384270.540 1   -174114.33945
                                  22131119.14145
  22272169.391 7  22272166.293 9                   -752604.942 7   -573945.928 9
                                
  24211105.695 6                                   -583982.917 6   -437461.63746
                                  24211100.10546
  20365488.727 7                                    -90315.526 7    -52273.78348
                                  20365483.09848
  24375831.797 5                                   -344004.215 5   -257674.34946
                                  24375828.48846
  23124754.422 5  23124754.734 9  23124753.477 9    882363.182 5    676379.042 9
    648625.242 9                
  20353454.484 7  20353450.621 9                   -229988.850 7   -173428.094 9
                                
  21145427.117 5                                   1047150.184 5    799489.348 8
                  21145427.730 4  21145431.559 8
  19202334.133 8                                    -52622.587 8    -39023.467 9
                  19202333.688 7  19202338.621 9
  22003971.172 6                                   -844656.724 6   -640993.938 8
                  22003970.727 5  22003978.246 8
  20417628.016 2                                    371779.366 2
                  20417626.984 1
  20319399.219 6                                   -394600.416 6   -298611.784 9
                  20319398.305 5  20319404.105 9
 17 10 27 16 51 35.0000000  0 14G05G12G13G15G18G20G21G25G29R03R04R05
                                R18R19
  21371297.109 5  21371294.242 9                    894407.531 5    670207.819 9
                                
  24192473.438 6  24192471.648 9                   1251560.292 6    959996.300 9
                                
  22129946.797 3                                   -390451.334 3   -178930.52445
                                  22129943.00445
  22269829.117 7  22269825.859 9                   -764902.210 7   -583528.186 9
                                
  24209212.195 5                                   -593934.541 5   -445216.11946
                                  24209206.45746
  20365457.609 7                                    -90476.359 7    -52399.11348
                                  20365452.86348
  24374726.531 5                                   -349817.902 5   -262204.52146
                                  24374722.52046
  23127774.805 5  23127775.961 9  23127773.465 9    898236.823 5    688748.104 9
    660478.931 9                
  20352971.141 7  20352966.691 9                   -232530.500 7   -175408.610 9
                                
  21149077.930 4                                   1066697.268 4    814692.633 8
                  21149078.426 2  21149081.973 8
  19202345.289 7                                    -52560.024 7    -38974.837 9
                  19202345.082 7  19202350.082 9
  22001040.469 6                                   -860327.985 6   -653182.705 7
                  22001039.086 5  22001046.070 7
  20419257.469 5                                    380479.621 5
                  20419255.734 2
  20318079.914 6                                   -401659.531 6   -304102.188 9
                  20318078.883 5  20318083.785 9
 17 10 27 16 51 40.0000000  0 14G05G12G13G15G18G20G21G25G29R03R04R05
                                R18R19
  21374136.766 5  21374133.285 9                    909329.687 5    681835.420 9
                                
  24196294.250 6  24196292.688 8                   1271639.688 6    975642.514 8
                                
  22128773.320 3                                   -396612.408 3   -183731.36145
                                  22128770.98845
  22267492.242 7  22267488.758 9                   -777184.094 7   -593098.478 9
                                
  24207320.805 6                                   -603872.530 6   -452960.00346
                                  24207315.73446
  20365431.391 7                                    -90618.022 7    -52509.49048
                                  20365426.13748
  24373620.961 5                                   -355624.460 5   -266729.15346
                                  24373617.18446
  23130798.109 5  23130798.828 9  23130796.949 9    914125.350 5    701128.761 9
    672343.745 9                
  20352491.617 7  20352486.902 9                   -235051.334 7   -177372.894 9
                                
  21152732.789 3                                   1086263.687 3    829910.938 8
                  21152732.582 3  21152737.441 8
  19202362.578 7                                    -52468.321 7    -38903.519 9
                  19202362.371 7  19202367.367 9
  21998112.234 6                                   -875981.043 6   -665357.264 7
                  21998111.320 5  21998117.301 7
  20420890.117 3                                    389200.754 3
                  20420890.613 2
  20316763.203 6                                   -408703.545 6   -309580.873 9
                  20316762.289 5  20316767.320 9
 17 10 27 16 51 45.0000000  0 14G05G12G13G15G18G20G21G25G29R03R04R05
                                R18R19
  21376979.578 4  21376976.465 9                    924266.805 4    693474.683 9
                                
  24200117.578 6  24200115.395 9                   1291725.664 6    991294.002 9
                                
  22127604.594 4                                   -402753.583 4   -188516.64645
                                  22127602.55945
  22265158.195 7  22265154.344 9                   -789450.693 7   -602656.877 9
                                
  24205432.906 6                                   -613796.940 6   -460693.35946
                                  24205427.36746
  20365407.352 7                                    -90740.566 7    -52604.95148
                                  20365402.67648
  24372517.766 5                                   -361423.945 5   -271248.15246
                                  24372513.48446
  23133824.922 6  23133825.746 9  23133823.500 9    930028.591 6    713520.943 9
    684219.527 9                
  20352015.313 7  20352011.250 9                   -237551.433 7   -179321.016 9
                                
  21156392.680 3                                   1105849.439 3    845144.361 8
                  21156391.648 2  21156396.156 8
  19202384.758 8                                    -52347.445 8    -38809.478 9
                  19202385.723 7  19202389.871 9
  21995187.758 6                                   -891616.065 6   -677517.860 7
                  21995187.195 5  21995193.016 7
  20422528.953 4                                    397942.516 4
                  20422527.805 3
  20315448.227 6                                   -415732.264 6   -315047.637 9
                  20315447.781 5  20315453.660 9
 17 10 27 16 51 50.0000000  0 14G05G12G13G15G18G20G21G25G29R03R04R05
                                R18R19
  21379824.648 4  21379820.625 8                    939218.327 4    705125.235 8
                                
  24203940.906 6  24203938.531 9                   1311817.695 6   1006950.046 9
                                
  22126438.328 2                                   -408875.635 2   -193287.11945
                                  22126437.99645
  22262826.734 7  22262823.352 9                   -801702.544 7   -612203.751 9
                                
  24203546.211 6                                   -623708.316 6   -468416.43846
                                  24203541.81346
  20365387.867 7                                    -90844.530 7    -52685.98848
                                  20365382.89548
  24371414.852 5                                   -367216.950 5   -275762.19046
                                  24371411.02046
  23136853.484 6  23136854.207 9  23136852.578 9    945945.985 6    725924.048 9
    696105.860 9                
  20351543.156 7  20351539.402 9                   -240031.325 7   -181253.409 9
                                
  21160054.508 3                                   1125454.093 3    860392.342 8
                  21160055.355 2  21160059.195 8
  19202413.367 8                                    -52198.025 8    -38693.286 9
                  19202412.688 7  19202417.098 9
  21992265.008 6                                   -907233.492 6   -689664.729 7
                  21992264.328 5  21992270.973 7
  20424170.547 2                                    406704.545 2
                  20424169.867 1
  20314137.586 5                                   -422746.422 5   -320503.113 9
                  20314135.734 4  20314142.176 9
 17 10 27 16 51 55.0000000  0 14G05G12G13G15G18G20G21G25G29R03R04R05
                                R18R19
  21382672.820 5  21382668.555 8                    954184.280 5    716787.010 8
                                
  24207764.633 6  24207763.547 9                   1331915.798 6   1022610.931 9
                                
  22125278.055 4                                   -414978.431 4   -198042.49445
                                  22125276.54345
  22260498.031 7  22260494.387 9                   -813939.663 7   -621739.193 9
                                
  24201663.164 6                                   -633606.672 6   -476129.48646
                                  24201658.55546
  20365370.992 7                                    -90929.956 7    -52752.51948
                                  20365366.32848
  24370313.609 5                                   -373003.513 5   -280271.19146
                                  24370309.63346
  23139884.828 6  23139886.320 9  23139884.184 9    961877.507 6    738338.262 9
    708002.806 9                
  20351075.789 7  20351071.328 9                   -242491.027 7   -183170.061 9
                                
  21163720.625 3                                   1145077.255 3    875654.829 8
                  21163720.887 3  21163725.168 8
  19202446.430 8                                    -52020.160 8    -38554.922 9
                  19202446.223 7  19202450.652 9
  21989346.633 6                                   -922833.396 6   -701797.993 7
                  21989346.426 5  21989352.656 7
  20425815.914 4                                    415486.523 4
                  20425815.469 2
  20312828.992 5                                   -429745.948 5   -325947.160 9
                  20312828.078 5  20312834.180 9
 17 10 27 16 52  0.0000000  0 14G05G12G13G15G18G20G21G25G29R03R04R05
                                R18R19
  21385522.711 5  21385519.418 8                    969164.517 5    728459.892 8
                                
  24211590.750 6  24211589.762 9                   1352019.896 6   1038276.449 9
                                
  22124119.875 3                                   -421061.922 3   -202782.81745
                                  22124119.27345
  22258172.578 7  22258168.629 9                   -826162.000 7   -631263.083 9
                                
  24199781.813 6                                   -643491.973 6   -483832.26946
                                  24199777.42646
  20365358.758 7                                    -90996.821 7    -52804.62548
                                  20365353.35948
  24369213.695 5                                   -378783.558 5   -284775.12846
                                  24369209.71946
  23142919.469 5  23142920.613 9  23142918.723 9    977823.153 5    750763.413 9
    719910.250 9                
  20350611.867 7  20350607.289 9                   -244930.546 7   -185070.983 9
                                
  21167391.883 2                                   1164719.156 2    890931.869 8
                  21167391.203 1  21167394.734 8
  19202484.953 8                                    -51813.632 8    -38394.306 9
                  19202485.332 7  19202489.406 9
  21986432.688 6                                   -938415.985 6   -713917.758 7
                  21986431.422 5  21986437.148 7
  20427465.391 5                                    424288.838 5
                  20427465.770 3
  20311523.508 6                                   -436730.797 6   -331379.815 9
                  20311521.891 5  20311527.734 9
 17 10 27 16 52  5.0000000  0 13G05G12G13G15G18G20G21G25G29R04R05R18
                                R19
  21388377.023 6  21388372.281 9                    984158.630 6    740143.550 9
                                
  24215417.445 6  24215415.691 9                   1372129.421 6   1053946.158 9
                                
  22122966.266 5                                   -427126.764 5   -207508.69645
                                  22122965.16845
  22255848.602 7  22255845.145 9                   -838370.091 7   -640775.839 9
                                
  24197901.727 5                                   -653364.821 5   -491525.43646
                                  24197899.54746
  20365349.297 7                                    -91045.666 7    -52842.66548
                                  20365344.29348
  24368116.313 5                                   -384557.624 5   -289274.46946
                                  24368110.52746
  23145956.430 6  23145957.352 9  23145955.211 9    993782.337 6    763199.095 9
    731827.807 9                
  20350150.719 7  20350147.055 9                   -247350.432 7   -186956.595 9
                                
  19202528.664 8                                    -51579.014 8    -38211.892 9
                  19202528.691 8  19202533.230 9
  21983521.086 6                                   -953981.434 6   -726024.183 8
                  21983520.055 5  21983526.121 8
  20429117.227 5                                    433110.679 5
                  20429116.547 3
  20310220.852 6                                   -443701.557 6   -336801.683 9
                  20310219.938 5  20310224.688 9
 17 10 27 16 52 10.0000000  0 14G05G12G13G15G18G20G21G25G29R03R04R05
                                R18R19
  21391233.570 5  21391228.676 8                    999166.647 5    751838.133 8
                                
  24219244.523 6  24219243.563 9                   1392244.495 6   1069620.220 9
                                
  22121815.883 5                                   -433172.702 5   -212219.89645
                                  22121813.73845
  22253528.594 7  22253525.316 9                   -850563.792 7   -650277.448 9
                                
  24196026.133 6                                   -663225.046 6   -499208.68446
                                  24196023.50446
  20365342.961 7                                    -91076.472 7    -52866.68348
                                  20365338.45748
  24367018.516 5                                   -390325.679 5   -293769.04246
                                  24367013.53546
  23148995.172 5  23148996.715 9  23148994.988 9   1009755.195 5    775645.481 9
    743755.576 9                
  20349694.031 7  20349690.277 9                   -249750.529 7   -188826.821 9
                                
  21174738.203 3                                   1204057.23413
                                
  19202578.000 7                                    -51316.405 7    -38007.591 9
                  19202577.438 7  19202582.270 9
  21980612.141 6                                   -969529.687 6   -738117.240 7
                  21980611.109 5  21980617.652 7
  20430775.859 4                                    441952.360 4    225473.91916
                  20430773.539 3  20430789.102 6
  20308919.398 6                                   -450658.078 6   -342212.134 9
                  20308919.309 5  20308923.906 9
 17 10 27 16 52 15.0000000  0 14G05G12G13G15G18G20G21G25G29R03R04R05
                                R18R19
  21394092.563 5  21394086.445 9                   1014188.306 5    763543.326 9
                                
  24223073.102 6  24223072.797 9                   1412364.855 6   1085298.467 9
                                
  22120669.141 4                                   -439200.147 4   -216916.48946
                                  22120667.54346
  22251211.492 7  22251208.094 9                   -862743.354 7   -659768.039 9
                                
  24194151.797 6                                   -673073.050 6   -506882.46046
                                  24194149.27046
  20365341.016 7                                    -91089.441 7    -52876.78348
                                  20365335.85248
  24365921.297 5                                   -396087.951 5   -298259.08946
                                  24365916.85946
  23152037.219 5  23152038.988 9  23152037.793 9   1025741.432 5    788102.293 9
    755693.343 9                
  20349241.117 7  20349236.934 9                   -252131.054 7   -190681.781 9
                                
  21178416.836 3                                   1223753.390 3
                                
  19202631.023 7                                    -51025.829 7    -37781.570 9
                  19202632.105 7  19202636.477 9
  21977705.898 6                                   -985061.086 6   -750197.250 7
                  21977705.336 5  21977711.422 7
  20432434.828 3                                    450813.399 3
                  20432432.977 2
  20307622.672 6                                   -457600.593 6   -347611.910 9
                  20307622.465 6  20307626.516 9
 17 10 27 16 52 20.0000000  0 14G05G12G13G15G18G20G21G25G29R03R04R05
                                R18R19
  21396953.406 5  21396948.465 9                   1029223.116 5    775258.771 9
                                
  24226903.461 6  24226902.227 8                   1432490.021 6   1100980.377 8
                                
  22119524.703 5                                   -445209.428 5   -221599.04845
                                  22119524.27045
  22248896.086 7  22248892.684 9                   -874909.274 7   -669247.974 9
                                
  24192280.078 5                                   -682909.167 5   -514546.95146
                                  24192277.78146
  20365341.719 7                                    -91085.050 7    -52873.36748
                                  20365336.80948
  24364826.625 5                                   -401844.995 5   -302745.10346
                                  24364821.46946
  23155082.805 5  23155083.750 9  23155082.559 9   1041740.554 5    800569.155 9
    767640.729 9                
  20348791.797 7  20348788.250 9                   -254492.564 7   -192521.923 9
                                
  21182101.117 4                                   1243466.941 4    909293.17518
                  21182100.910 3  21182105.453 8
  19202690.656 7                                    -50708.010 7    -37534.360 9
                  19202690.801 7  19202695.500 9
  21974803.195 6                                  -1000576.219 6   -762264.558 7
                  21974803.457 5  21974808.602 7
  20434097.391 4                                    459693.376 4
                  20434096.008 2
  20306328.094 6                                   -464529.563 6   -353001.106 9
                  20306326.359 5  20306331.875 9
 17 10 27 16 52 25.0000000  0 14G05G12G13G15G18G20G21G25G29R03R04R05
                                R18R19
  21399815.547 5  21399811.711 9                   1044271.471 5    786984.780 9
                                
  24230733.500 6  24230732.438 8                   1452620.383 6   1116666.358 8
                                
  22118383.734 4                                   -451200.238 4   -226267.23246
                                  22118384.05146
  22246583.250 6  22246580.086 9                   -887061.117 6   -678716.948 9
                                
  24190411.734 5                                   -692733.034 5   -522201.90346
                                  24190408.30946
  20365346.375 7                                    -91062.942 7    -52856.13948
                                  20365341.20348
  24363732.172 5                                   -407596.240 5   -307226.60646
                                  24363727.18446
  23158129.852 5  23158131.004 9  23158128.938 9   1057752.949 5    813046.332 9
    779598.038 9                
  20348345.930 7  20348342.344 9                   -256834.585 7   -194346.864 9
                                
  21185785.164 3                                   1263198.337 3    924639.778 8
                  21185784.719 2  21185790.418 8
  19202755.820 7                                    -50362.568 7    -37265.710 9
                  19202755.375 7  19202760.008 9
  21971905.180 6                                  -1016074.445 6   -774318.722 7
                  21971904.973 5  21971910.387 7
  20435765.070 3                                    468592.867 3
                  20435762.633 2
  20305035.555 6                                   -471444.682 6   -358379.551 9
                  20305034.055 5  20305038.695 9
 17 10 27 16 52 30.0000000  0 14G05G12G13G15G18G20G21G25G29R03R04R05
                                R18R19
  21402683.109 4  21402677.969 9                   1059332.959 4    798720.973 9
                                
  24234565.000 6  24234563.559 8                   1472755.404 6   1132355.950 8
                                
  22117248.250 4                                   -457172.839 4   -230921.11846
                                  22117246.98046
  22244273.719 7  22244270.844 9                   -899199.339 7   -688175.288 9
                                
  24188543.430 6                                   -702545.090 6   -529847.62146
                                  24188540.75446
  20365353.750 7                                    -91023.541 7    -52825.42548
                                  20365348.19948
  24362637.727 5                                   -413342.210 5   -311703.95746
                                  24362633.87146
  23161178.633 5  23161180.215 9  23161179.383 9   1073778.149 5    825533.460 9
    791564.899 9                
  20347903.852 7  20347900.184 9                   -259157.583 7   -196156.986 9
                                
  21189475.406 4                                   1282946.900 4    939999.765 8
                  21189472.852 2  21189480.230 8
  19202825.164 7                                    -49989.760 7    -36975.698 9
                  19202825.074 7  19202829.801 9
  21969009.750 6                                  -1031556.304 6   -786360.165 8
                  21969007.313 5  21969014.047 8
  20437431.750 1                                    477511.162 1
                  20437429.781 1
  20303744.211 6                                   -478346.195 6   -363747.379 9
                  20303743.766 5  20303749.219 9
 17 10 27 16 52 35.0000000  0 14G05G12G13G15G18G20G21G25G29R03R04R05
                                R18R19
  21405551.016 4  21405546.063 9                   1074407.027 4    810467.025 9
                                
  24238397.930 6  24238396.035 8                   1492894.813 6   1148048.984 8
                                
  22116115.383 4                                   -463127.759 4   -235561.32045
                                  22116113.60945
  22241966.203 7  22241963.348 9                   -911324.316 7   -697623.307 9
                                
  24186678.023 6                                   -712345.738 6   -537484.51146
                                  24186675.88746
  20365364.445 7                                    -90967.272 7    -52781.59048
                                  20365358.99648
  24361545.414 5                                   -419083.435 5   -316177.63046
                                  24361541.57446
  23164230.813 6  23164231.875 9  23164230.605 9   1089815.742 6    838030.293 9
    803541.032 9                
  20347465.125 7  20347461.113 9                   -261461.956 7   -197952.596 9
                                
  21193166.914 2                                   1302712.458 2    955372.968 8
                  21193163.539 1  21193173.035 8
  19202900.289 7                                    -49589.977 7    -36664.756 9
                  19202898.789 7  19202904.531 9
  21966115.422 6                                  -1047022.018 6   -798389.021 8
                  21966114.156 5  21966120.965 8
  20439108.266 1                                    486448.22811
                  20439104.770 1
  20302457.156 6                                   -485234.789 6   -369105.178 9
                  20302455.773 5  20302461.023 9
 17 10 27 16 52 40.0000000  0 14G05G12G13G15G18G20G21G25G29R03R04R05
                                R18R19
  21408422.492 6  21408417.223 9                   1089494.051 6    822223.129 9
                                
  24242231.469 6  24242229.023 8                   1513038.793 6   1163745.645 8
                                
  22114985.594 4                                   -469064.623 4   -240187.53245
                                  22114983.54745
  22239661.445 7  22239658.336 9                   -923435.789 7   -707060.812 9
                                
  24184815.227 5                                   -722134.691 5   -545112.23146
                                  24184813.09846
  20365378.328 7                                    -90893.845 7    -52724.35948
                                  20365373.18448
  24360454.250 5                                   -424819.530 5   -320647.30846
                                  24360450.28946
  23167284.844 5  23167285.836 9  23167284.738 9   1105865.978 5    850536.976 9
    815526.570 9                
  20347030.594 7  20347026.418 9                   -263747.434 7   -199733.498 9
                                
  21196861.930 1                                   1322495.256 1    970759.627 8
                  21196860.664 1  21196868.547 8
  19202979.266 7                                    -49163.087 7    -36332.770 9
                  19202979.645 7  19202983.758 9
  21963225.906 6                                  -1062471.668 6   -810405.372 7
                  21963224.875 5  21963229.879 7
  20440786.133 2                                    495403.999 2    232439.68116
                  20440784.867 1  20440812.340 6
  20301171.047 6                                   -492109.899 6   -374452.472 9
                  20301170.016 5  20301175.582 9
 17 10 27 16 52 45.0000000  0 14G05G12G13G15G18G20G21G25G29R03R04R05
                                R18R19
  21411293.914 5  21411289.945 8                   1104593.927 5    833989.274 8
                                
  24246065.680 6  24246063.820 8                   1533187.136 6   1179445.627 8
                                
  22113858.930 5                                   -474983.672 5   -244799.78245
                                  22113857.58245
  22237359.695 7  22237355.605 9                   -935533.786 7   -716487.848 9
                                
  24182954.148 5                                   -731912.024 5   -552730.91346
                                  24182952.22346
  20365395.414 7                                    -90803.325 7    -52653.82949
                                  20365390.85949
  24359365.180 5                                   -430550.489 5   -325113.03746
                                  24359360.02046
  23170341.375 6  23170342.992 9  23170340.203 9   1121928.779 6    863053.439 9
    827521.516 9                
  20346599.703 7  20346594.867 9                   -266014.084 7   -201499.714 9
                                
  21200561.789 2                                   1342294.914 2    986159.271 8
                  21200559.820 1  21200566.020 8
  19203064.219 8                                    -48709.101 8    -35979.677 9
                  19203064.246 7  19203069.324 9
  21960339.016 6                                  -1077905.042 6   -822409.079 7
                  21960338.219 5  21960342.711 7
  20442467.531 3                                    504378.584 3    239419.678 6
                  20442467.559 1  20442491.188 6
  20299888.586 6                                   -498971.799 6   -379789.536 9
                  20299887.672 5  20299892.859 9
 17 10 27 16 52 50.0000000  0 14G05G12G13G15G18G20G21G25G29R03R04R05
                                R18R19
  21414171.672 5  21414165.938 8                   1119706.415 5    845765.232 8
                                
  24249900.664 6  24249898.891 8                   1553339.839 6   1195148.991 8
                                
  22112735.336 4                                   -480884.974 4   -249398.05345
                                  22112734.19545
  22235059.758 7  22235056.941 9                   -947618.570 7   -725904.544 9
                                
  24181096.641 5                                   -741677.982 5   -560340.74446
                                  24181094.08646
  20365415.555 7                                    -90695.982 7    -52570.17148
                                  20365410.46148
  24358274.602 5                                   -436276.721 5   -329575.00846
                                  24358269.84446
  23173400.117 5  23173402.148 9  23173401.605 9   1138003.914 5    875579.476 9
    839525.649 9                
  20346171.328 7  20346167.520 9                   -268262.070 7   -203251.401 9
                                
  21204262.828 2                                   1362111.492 2   1001572.305 8
                  21204262.738 2  21204267.539 8
  19203153.945 8                                    -48228.289 8    -35605.689 9
                  19203154.441 7  19203159.156 9
  21957454.734 6                                  -1093322.498 6   -834400.470 7
                  21957453.938 6  21957458.352 7
  20444152.531 1                                    513371.684 1    246414.359 6
                  20444149.977 1  20444174.188 6
  20298608.992 6                                   -505820.504 6   -385116.312 9
                  20298609.020 5  20298613.328 9
 17 10 27 16 52 55.0000000  0 13G05G12G13G15G18G20G21G25G29R04R05R18
                                R19
  21417048.656 6  21417043.738 8                   1134830.905 6    857550.563 8
                                
  24253736.109 6  24253734.426 8                   1573496.137 6   1210855.193 8
                                
  22111616.367 5                                   -486769.085 5   -253983.21946
                                  22111615.29346
  22232763.023 7  22232759.098 9                   -959690.604 7   -735311.349 9
                                
  24179239.602 5                                   -751433.154 5   -567942.22046
                                  24179237.46146
  20365439.336 7                                    -90572.330 7    -52473.84048
                                  20365434.77748
  24357186.523 6                                   -441998.711 6   -334033.72446
                                  24357181.12946
  23176461.227 5  23176463.094 9  23176461.641 9   1154090.762 5    888114.692 9
    851538.549 9                
  20345747.008 7  20345743.199 9                   -270492.033 7   -204989.037 9
                                
  19203248.602 7                                    -47721.173 7    -35211.299 9
                  19203248.039 7  19203254.031 9
  21954573.633 6                                  -1108724.426 6   -846379.703 7
                  21954573.426 6  21954576.824 7
  20445841.141 1                                                    253422.83316
                  20445841.754 1  20445859.773 6
  20297331.039 6                                   -512656.735 6   -390433.378 9
                  20297330.715 6  20297335.852 9
 17 10 27 16 53  0.0000000  0 12G05G12G13G15G18G20G21G25G29R04R05R19
  21419930.422 6  21419924.449 8                   1149967.760 6    869345.476 8
                                
  24257572.320 6  24257570.191 8                   1593656.441 6   1226564.520 8
                                
  22110498.828 4                                   -492635.748 4   -258554.52645
                                  22110498.12145
  22230468.211 7  22230464.934 9                   -971749.591 7   -744707.958 9
                                
  24177386.445 6                                   -761177.089 6   -575534.82246
                                  24177383.44546
  20365466.039 7                                    -90432.095 7    -52364.53748
                                  20365460.94148
  24356097.281 5                                   -447716.063 5   -338488.75246
                                  24356093.32446
  23179525.398 5  23179527.172 9  23179525.414 9   1170189.688 5    900659.305 9
    863560.489 9                
  20345326.344 7  20345322.586 9                   -272703.558 7   -206712.316 9
                                
  19203348.609 7                                    -47187.496 7    -34796.174 9
                  19203348.871 7  19203353.848 9
  21951693.789 6                                  -1124110.537 6   -858346.695 7
                  21951694.637 6  21951698.219 7
  20296056.203 6                                   -519479.952 6   -395740.328 9
                  20296053.648 5  20296059.609 9
 17 10 27 16 53  5.0000000  0 13G05G12G13G15G18G20G21G25G29R03R04R05
                                R19
  21422813.328 5  21422807.813 8                   1165116.766 5    881149.918 8
                                
  24261409.078 6  24261407.367 8                   1613820.521 6   1242276.774 8
                                
  22109386.258 4                                   -498485.013 4   -263112.36245
                                  22109385.03945
  22228175.430 7  22228173.105 9                   -983795.586 7   -754094.418 9
                                
  24175534.852 6                                   -770910.004 6   -583118.87746
                                  24175531.20746
  20365495.766 7                                    -90275.399 7    -52242.43548
                                  20365490.29748
  24355010.383 5                                   -453428.979 5   -342940.37646
                                  24355006.27346
  23182591.508 5  23182592.070 9  23182592.324 9   1186300.513 5    913213.182 9
    875591.279 9                
  20344908.992 7  20344904.633 9                   -274896.797 7   -208421.298 9
                                
  21215386.547 1                                     41282.47911
                  21215386.809 1
  19203453.375 7                                    -46627.313 7    -34360.468 9
                  19203453.051 7  19203458.578 9
  21948819.977 6                                  -1139480.934 6   -870301.422 8
                  21948818.828 5  21948823.910 8
  20294782.430 6                                   -526290.510 6   -401037.412 9
                  20294780.930 6  20294786.648 9
 17 10 27 16 53 10.0000000  0 13G05G12G13G15G18G20G21G25G29R03R04R05
                                R19
  21425698.414 6  21425692.703 8                   1180277.445 6    892963.458 8
                                
  24265247.156 6  24265244.910 8                   1633987.889 6   1257991.572 8
                                
  22108276.906 5                                   -504317.505 5   -267657.11145
                                  22108274.82045
  22225885.305 7  22225882.684 9                   -995829.242 7   -763471.281 9
                                
  24173683.805 6                                   -780632.477 6   -590694.84146
                                  24173681.10246
  20365529.227 7                                    -90102.752 7    -52107.90448
                                  20365523.24248
  24353924.234 5                                   -459138.033 5   -347388.97946
                                  24353919.51646
  23185658.945 6  23185660.156 9  23185660.234 9   1202422.692 6    925775.884 9
    887630.557 9                
  20344494.922 7  20344490.855 9                   -277072.334 7   -210116.518 9
                                
  21219099.906 1                                     61163.956 1     14844.75917
                  21219102.277 1  21219106.453 7
  19203562.320 7                                    -46041.262 7    -33904.644 9
                  19203562.699 7  19203567.914 9
  21945946.805 6                                  -1154836.332 6   -882244.490 8
                  21945946.598 6  21945951.688 8
  20293511.438 6                                   -533088.870 6   -406325.027 9
                  20293510.758 5  20293516.180 9
 17 10 27 16 53 15.0000000  0 12G05G12G13G15G18G20G21G25G29R04R05R19
  21428584.359 6  21428579.152 8                   1195449.703 6    904785.981 8
                                
  24269085.500 6  24269083.266 8                   1654158.549 6   1273708.970 8
                                
  22107169.563 4                                   -510133.122 4   -272188.77345
                                  22107168.34845
  22223598.047 7  22223595.555 9                  -1007850.498 7   -772838.503 9
                                
  24171834.711 6                                   -790344.450 6   -598262.56646
                                  24171832.77746
  20365564.648 7                                    -89914.236 7    -51960.99948
                                  20365558.81348
  24352837.672 5                                   -464843.245 5   -351834.60346
                                  24352833.97346
  23188729.328 5  23188730.305 9  23188730.258 9   1218556.134 5    938347.387 9
    899678.238 9                
  20344083.984 7  20344079.902 9                   -279230.139 7   -211797.924 9
                                
  19203676.703 8                                    -45429.292 8    -33428.674 9
                  19203676.848 7  19203681.859 9
  21943076.867 6                                  -1170176.601 6   -894175.802 8
                  21943075.953 6  21943081.730 8
  20292242.164 6                                   -539874.968 6   -411603.105 9
                  20292241.719 5  20292247.563 9
 17 10 27 16 53 20.0000000  0 13G05G12G13G15G18G20G21G25G29R03R04R05
                                R19
  21431473.953 6  21431468.969 8                   1210633.556 6    916617.537 8
                                
  24272924.133 6  24272922.324 8                   1674332.438 6   1289428.883 8
                                
  22106067.000 4                                   -515931.786 4   -276707.20646
                                  22106064.53546
  22221312.805 7  22221310.195 9                  -1019859.286 7   -782195.984 9
                                
  24169989.531 6                                   -800045.884 6   -605822.11846
                                  24169986.62146
  20365603.453 7                                    -89709.774 7    -51801.67248
                                  20365597.87948
  24351753.844 5                                   -470544.544 5   -356277.17246
                                  24351749.36746
  23191801.984 5  23191802.387 9  23191803.051 9   1234700.960 5    950927.743 9
    911734.424 9                
  20343676.906 7  20343672.957 9                   -281370.159 7   -213465.466 9
                                
  21226538.555 1                                    100974.19111     45808.30417
                  21226539.051 1  21226543.188 7
  19203796.945 7                                    -44791.405 7    -32932.540 9
                  19203796.500 7  19203801.398 9
  21940210.156 6                                  -1185501.688 6   -906095.308 8
                  21940209.949 5  21940215.195 8
  20290975.477 6                                   -546648.860 6   -416871.691 9
                  20290974.914 5  20290980.547 9
 17 10 27 16 53 25.0000000  0 13G05G12G13G15G18G20G21G25G29R03R04R05
                                R19
  21434365.664 6  21434361.512 8                   1225828.952 6    928458.128 8
                                
  24276764.063 6  24276761.805 8                   1694509.440 6   1305151.184 8
                                
  22104966.813 4                                   -521713.744 4   -281212.61545
                                  22104964.39845
  22219029.430 7  22219027.473 9                  -1031855.740 7   -791543.848 9
                                
  24168144.945 6                                   -809736.951 6   -613373.56146
                                  24168142.55146
  20365645.078 7                                    -89489.496 7    -51630.02348
                                  20365639.70748
  24350668.734 5                                   -476242.057 5   -360716.76546
                                  24350665.18446
  23194876.359 6  23194876.715 9  23194877.203 9   1250856.968 6    963516.828 9
    923798.958 9                
  20343273.820 7  20343268.859 9                   -283492.492 7   -215119.238 9
                                
  21230259.438 1                                    120902.789 1     61308.285 8
                  21230259.934 1  21230266.805 8
  19203920.422 7                                    -44127.721 7    -32416.353 9
                  19203919.977 7  19203925.434 9
  21937346.070 6                                  -1200811.690 6   -918003.060 8
                  21937345.391 6  21937351.059 8
  20289712.094 6                                   -553410.558 6   -422130.778 9
                  20289711.063 6  20289716.426 9
 17 10 27 16 53 30.0000000  0 13G05G12G13G15G18G20G21G25G29R03R04R05
                                R19
  21437259.484 6  21437254.367 8                   1241035.492 6    940307.371 8
                                
  24280604.195 6  24280601.496 8                   1714689.280 6   1320875.704 8
                                
  22103869.031 4                                   -527479.225 4   -285705.11245
                                  22103866.52745
  22216749.469 7  22216746.730 9                  -1043840.146 7   -800882.340 9
                                
  24166302.969 6                                   -819417.927 6   -620917.15946
                                  24166300.46146
  20365690.539 7                                    -89253.744 7    -51446.32748
                                  20365684.40648
  24349585.359 5                                   -481936.084 5   -365153.66146
                                  24349581.84046
  23197953.117 6  23197953.266 9  23197954.000 9   1267023.840 6    976114.355 9
    935871.610 9                
  20342872.406 7  20342868.414 9                   -285597.487 7   -216759.487 9
                                
  21233985.156 2                                    140846.811 2     76820.359 8
                  21233987.059 1  21233992.348 8
  19204048.789 8                                    -43438.486 8    -31880.278 9
                  19204049.285 7  19204053.695 9
  21934485.094 6                                  -1216106.992 6   -929899.389 8
                  21934484.648 5  21934491.023 8
  20288451.063 6                                   -560160.505 6   -427380.738 9
                  20288449.445 6  20288454.965 9
 17 10 27 16 53 35.0000000  0 14G05G12G13G15G18G20G21G25G29R03R04R05
                                R18R19
  21440155.359 6  21440150.172 8                   1256253.424 6    952165.487 8
                                
  24284445.180 6  24284442.594 8                   1734872.029 6   1336602.551 8
                                
  22102774.148 3                                   -533227.999 3   -290184.73545
                                  22102773.39145
  22214470.984 7  22214468.230 9                  -1055812.335 7   -810211.313 9
                                
  24164462.680 6                                   -829088.614 6   -628452.75846
                                  24164459.60246
  20365737.828 7                                    -89002.277 7    -51250.37348
                                  20365732.58648
  24348502.148 5                                   -487626.473 5   -369587.72046
                                  24348498.67246
  23201032.133 6  23201031.473 9  23201032.250 9   1283201.716 6    988720.494 9
    947952.486 9                
  20342474.953 7  20342471.188 9                   -287684.877 7   -218386.021 9
                                
  21237717.633 2                                    160806.330 2     92344.431 7
                  21237718.598 1  21237720.688 7
  19204182.398 8                                    -42723.732 8    -31324.361 9
                  19204182.309 7  19204186.871 9
  21931626.867 6                                  -1231387.199 6   -941783.969 8
                  21931626.305 5  21931632.309 8
  20459482.211 2                                     15059.43712
                  20459479.422 1
  20287190.289 6                                   -566898.256 6   -432621.213 9
                  20287189.609 6  20287195.305 9
 17 10 27 16 53 40.0000000  0 14G05G12G13G15G18G20G21G25G29R03R04R05
                                R18R19
  21443052.156 6  21443047.844 8                   1271482.433 6    964032.232 8
                                
  24288286.297 6  24288284.246 8                   1755057.483 6   1352331.482 8
                                
  22101685.859 5                                   -538960.306 5   -294651.54346
                                  22101681.41046
  22212195.305 7  22212193.191 9                  -1067772.512 7   -819530.961 9
                                
  24162623.484 5                                   -838749.279 5   -635980.57646
                                  24162621.33246
  20365788.789 7                                    -88735.403 7    -51042.43448
                                  20365783.35548
  24347420.023 6                                   -493313.492 6   -374019.18846
                                  24347416.59046
  23204112.539 6  23204112.465 9  23204112.531 9   1299390.313 6   1001335.025 9
    960041.373 9                
  20342081.500 7  20342077.352 9                   -289754.980 7   -219999.106 9
                                
  21241446.859 3                                    180781.042 3    107880.266 7
                  21241445.711 1  21241452.324 7
  19204320.867 8                                    -41983.368 8    -30748.549 9
                  19204321.480 7  19204325.074 9
  21928770.438 6                                  -1246652.908 6   -953657.225 7
                  21928769.992 5  21928775.766 7
  20461198.195 1                                     24229.105 1
                  20461195.992 1
  20285932.477 6                                   -573624.235 6   -437852.510 9
                  20285931.094 5  20285937.680 9
 17 10 27 16 53 45.0000000  0 13G05G12G13G15G18G20G21G25G29R03R04R05
                                R19
  21445953.289 6  21445948.031 8                   1286722.007 6    975907.209 8
                                
  24292127.992 6  24292126.387 8                   1775245.127 6   1368062.097 8
                                
  22100597.891 3                                   -544676.689 3   -299105.88846
                                  22100593.68846
  22209921.508 7  22209918.719 9                  -1079721.104 7   -828841.546 9
                                
  24160787.281 5                                   -848400.405 5   -643500.89846
                                  24160784.84846
  20365842.992 7                                    -88453.568 7    -50822.81748
                                  20365837.68448
  24346338.875 6                                   -498997.527 6   -378448.30546
                                  24346334.73046
  23207194.789 6  23207194.816 9  23207194.148 9   1315589.266 6   1013957.570 9
    972137.984 9                
  20341690.781 7  20341686.801 9                   -291808.231 7   -221599.048 9
                                
  21245180.984 1                                    200770.43911
                                
  19204464.117 8                                    -41218.168 8    -30153.391 9
                  19204464.262 7  19204468.148 9
  21925917.547 6                                  -1261904.166 6   -965519.315 7
                  21925916.867 5  21925922.051 7
  20284676.453 6                                   -580338.955 6   -443075.072 9
                  20284676.832 5  20284682.293 9
 17 10 27 16 53 50.0000000  0 13G05G12G13G15G18G20G21G25G29R03R04R05
                                R19
  21448854.813 5  21448849.867 9                   1301972.398 5    987790.626 9
                                
  24295971.125 6  24295967.945 8                   1795435.124 6   1383794.548 8
                                
  22099513.234 4                                   -550376.938 4   -303547.59646
                                  22099508.43046
  22207650.078 7  22207646.758 9                  -1091657.998 7   -838143.030 9
                                
  24158953.211 5                                   -858041.751 5   -651013.63046
                                  24158950.06346
  20365899.531 7                                    -88156.691 7    -50591.48248
                                  20365893.88748
  24345257.219 6                                   -504678.486 6   -382875.02046
                                  24345253.17646
  23210280.133 6  23210279.383 9  23210278.426 9   1331798.674 6   1026588.260 9
    984242.391 9                
  20341303.117 7  20341298.961 9                   -293844.436 7   -223185.698 9
                                
  21248919.609 4                                    220774.800 4
                                
  19204610.938 8                                    -40427.959 8    -29538.769 9
                  19204610.965 7  19204615.469 9
  21923067.336 5                                  -1277141.124 5   -977370.241 7
                  21923067.129 5  21923071.813 7
  20283424.859 6                                   -587042.067 6   -448288.614 9
                  20283424.414 5  20283429.469 9
 17 10 27 16 53 55.0000000  0 13G05G12G13G15G18G20G21G25G29R03R04R05
                                R19
  21451759.563 6  21451753.238 8                   1317233.612 6    999682.474 8
                                
  24299812.797 6  24299810.152 8                   1815627.633 6   1399528.970 8
                                
  22098431.297 5                                   -556061.046 5   -307976.78246
                                  22098426.68046
  22205381.297 7  22205377.734 9                  -1103583.021 7   -847435.260 9
                                
  24157119.750 5                                   -867673.329 5   -658518.75046
                                  24157117.50446
  20365958.172 7                                    -87844.532 7    -50348.24748
                                  20365952.73448
  24344177.500 6                                   -510356.266 6   -387299.30046
                                  24344172.62946
  23213367.367 6  23213366.402 9  23213366.621 9   1348018.563 6   1039227.122 9
    996354.638 9                
  20340919.531 7  20340915.223 9                   -295863.511 7   -224759.004 9
                                
  21252657.609 2                                    240793.822 2
                  21252656.578 1
  19204763.313 8                                    -39612.587 8    -28904.607 9
                  19204762.750 7  19204768.004 9
  21920219.633 6                                  -1292363.513 6   -989209.834 7
                  21920219.070 5  21920224.523 7
  20282174.320 6                                   -593733.580 6   -453493.104 9
                  20282172.586 5  20282178.316 9
 17 10 27 16 54  0.0000000  0 13G05G12G13G15G18G20G21G25G29R03R04R05
                                R19
  21454665.813 6  21454659.875 9                   1332505.715 6   1011582.834 9
                                
  24303655.563 6  24303653.188 8                   1835822.712 6   1415265.406 8
                                
  22097350.711 2                                   -561728.761 2   -312393.14646
                                  22097347.98846
  22203113.984 7  22203110.871 9                  -1115496.143 7   -856718.166 9
                                
  24155289.250 5                                   -877294.967 5   -666016.10946
                                  24155286.53146
  20366021.133 7                                    -87517.115 7    -50093.10148
                                  20366015.05148
  24343097.070 5                                   -516030.753 5   -391720.94046
                                  24343092.42646
  23216455.469 6  23216454.340 9  23216455.199 9   1364249.069 6   1051874.276 9
   1008474.815 9                
  20340538.195 7  20340534.016 9                   -297865.353 7   -226318.862 9
                                
  21256400.422 1                                    260827.918 1    124685.87917
                  21256400.566 1  21256407.117 7
  19204920.609 8                                    -38771.853 8    -28250.679 9
                  19204919.813 7  19204924.426 9
  21917374.672 6                                  -1307571.136 6  -1001038.004 7
                  21917374.348 5  21917379.648 7
  20280924.938 6                                   -600413.269 6   -458688.436 9
                  20280923.086 5  20280929.398 9
 17 10 27 16 54  5.0000000  0 12G05G12G13G15G18G20G21G25G29R04R05R19
  21457574.242 6  21457568.609 9                   1347789.231 6   1023492.074 9
                                
  24307498.891 6  24307495.762 8                   1856020.716 6   1431004.091 8
                                
  22096275.039 3                                   -567379.597 3   -316796.39245
                                  22096272.47745
  22200849.109 7  22200846.227 9                  -1127396.849 7   -865991.414 9
                                
  24153460.492 6                                   -886906.241 6   -673505.34146
                                  24153457.69146
  20366086.047 7                                    -87173.969 7    -49825.71148
                                  20366081.09448
  24342018.367 6                                   -521701.520 6   -396139.70646
                                  24342014.18046
  23219546.086 6  23219545.000 9  23219546.125 9   1380490.581 6   1064529.966 9
   1020603.194 9                
  20340160.555 7  20340156.875 9                   -299849.506 7   -227864.937 9
                                
  19205082.008 8                                    -37905.436 8    -27576.784 9
                  19205082.152 7  19205086.867 9
  21914532.742 6                                  -1322763.873 6  -1012854.583 7
                  21914531.359 5  21914538.145 7
  20279677.898 6                                   -607080.789 6   -463874.312 9
                  20279676.750 5  20279683.453 9
 17 10 27 16 54 10.0000000  0 12G05G12G13G15G18G20G21G25G29R04R05R19
  21460483.906 6  21460478.848 9                   1363083.443 6   1035409.603 9
                                
  24311343.273 6  24311341.070 9                   1876221.043 6   1446744.647 9
                                
  22095203.492 3                                   -573014.269 3   -321187.05946
                                  22095200.72346
  22198586.563 7  22198583.109 9                  -1139285.736 7   -875255.488 9
                                
  24151632.820 6                                   -896507.750 6   -680987.03446
                                  24151630.18046
  20366154.617 7                                    -86815.795 7    -49546.60348
                                  20366149.28548
  24340939.219 5                                   -527369.244 5   -400556.18446
                                  24340935.18446
  23222638.359 6  23222637.859 9  23222636.297 9   1396742.414 6   1077193.697 9
   1032739.290 9                
  20339787.250 7  20339782.266 9                   -301816.547 7   -229397.741 9
                                
  19205248.180 8                                    -37013.978 8    -26883.465 9
                  19205249.027 7  19205254.242 9
  21911692.383 5                                  -1337942.019 5  -1024659.723 7
                  21911691.703 4  21911697.855 7
  20278435.164 6                                   -613736.965 6   -469051.347 9
                  20278435.191 5  20278439.469 9
 17 10 27 16 54 15.0000000  0 13G05G12G13G15G18G20G21G25G29R03R04R05
                                R19
  21463397.398 6  21463391.484 9                   1378388.500 6   1047335.601 9
                                
  24315186.875 6  24315185.215 8                   1896423.563 6   1462486.838 8
                                
  22094135.367 5                                   -578632.697 5   -325565.01046
                                  22094131.93846
  22196326.625 7  22196322.383 9                  -1151162.900 7   -884510.454 9
                                
  24149807.641 6                                   -906099.572 6   -688461.16846
                                  24149804.87546
  20366225.398 7                                    -86442.430 7    -49255.68448
                                  20366219.79748
  24339861.344 5                                   -533033.896 5   -404970.17446
                                  24339857.75846
  23225732.586 6  23225732.723 9  23225733.598 9   1413004.681 6   1089865.592 9
   1044883.188 9                
  20339415.383 7  20339411.434 9                   -303766.659 7   -230917.276 9
                                
  21267648.195 1                                     36219.84011
                  21267647.398 1
  19205419.352 8                                    -36097.257 8    -26170.448 9
                  19205419.262 8  19205424.066 9
  21908857.836 6                                  -1353105.621 6  -1036453.678 7
                  21908856.570 5  21908860.754 7
  20277193.406 7                                   -620381.239 7   -474219.089 9
                  20277192.023 6  20277196.547 9
 17 10 27 16 54 20.0000000  0 13G05G12G13G15G18G20G21G25G29R03R04R05
                                R19
  21466310.727 6  21466306.020 9                   1393704.176 6   1059269.938 9
                                
  24319031.875 6  24319030.184 8                   1916628.635 6   1478230.962 8
                                
  22093068.578 4                                   -584234.658 4   -329930.21746
                                  22093065.66846
  22194068.664 7  22194065.586 9                  -1163028.052 7   -893756.028 9
                                
  24147984.859 6                                   -915681.489 6   -695927.58146
                                  24147981.18846
  20366298.688 7                                    -86053.947 7    -48952.94248
                                  20366294.37148
  24338784.391 6                                   -538695.288 6   -409381.65546
                                  24338779.73846
  23228830.625 6  23228828.910 9  23228827.914 9   1429277.442 6   1102545.663 9
   1057034.901 9                
  20339047.492 7  20339042.898 9                   -305699.338 7   -232423.281 9
                                
  21271400.281 5                                     56314.085 5      8752.27818
                  21271398.430 4  21271405.469 8
  19205595.063 7                                    -35155.508 7    -25437.916 9
                  19205594.148 6  19205600.391 9
  21906022.430 6                                  -1368254.583 6  -1048236.144 7
                  21906022.105 4  21906026.230 7
  20275952.844 6                                   -627013.929 6   -479377.867 9
                  20275952.047 5  20275956.453 9
 17 10 27 16 54 25.0000000  0 13G02G05G12G13G15G18G20G21G25G29R04R05
                                R19
  23071693.586 1                                     24799.20211
                                
  21469227.391 5  21469223.090 9                   1409030.389 5   1071212.421 9
                                
  24322878.023 6  24322875.207 8                   1936835.597 6   1493976.689 8
                                
  22092005.781 5                                   -589820.852 5   -334283.05846
                                  22092002.75446
  22191813.547 7  22191810.551 9                  -1174881.762 7   -902992.649 9
                                
  24146163.156 6                                   -925253.959 6   -703386.65346
                                  24146159.11746
  20366376.211 7                                    -85650.653 7    -48638.71148
                                  20366370.94548
  24337706.797 5                                   -544354.009 5   -413791.06246
                                  24337703.62946
  23231927.094 6  23231927.430 9  23231927.434 9   1445560.178 6   1115233.506 9
   1069194.092 9                
  20338683.328 7  20338678.840 9                   -307615.379 7   -233916.294 9
                                
  19205776.430 8                                    -34188.875 8    -24686.149 9
                  19205776.223 7  19205780.660 9
  21903190.492 6                                  -1383389.400 6  -1060007.685 7
                  21903190.047 5  21903195.688 7
  20274715.148 7                                   -633635.220 7   -484527.714 9
                  20274714.352 6  20274718.828 9
 17 10 27 16 54 30.0000000  0 13G05G12G13G15G18G20G21G25G29R03R04R05
                                R19
  21472146.375 5  21472141.617 9                   1424366.758 5   1083162.823 9
                                
  24326723.078 6  24326720.949 8                   1957044.523 6   1509723.904 8
                                
  22090943.609 1                                   -595391.212 1   -338623.57645
                                  22090943.14145
  22189559.609 7  22189557.000 9                  -1186724.063 7   -912220.419 9
                                
  24144343.914 6                                   -934817.060 6   -710838.41046
                                  24144339.56346
  20366456.195 7                                    -85232.638 7    -48312.99248
                                  20366449.95748
  24336631.625 5                                   -550009.964 5   -418198.24046
                                  24336627.24646
  23235028.680 6  23235028.020 8  23235028.613 9   1461852.743 6   1127929.040 8
   1081360.612 9                
  20338320.852 7  20338316.750 9                   -309514.790 7   -235396.333 9
                                
  21278914.844 3                                     96544.78713     40042.82217
                  21278914.047 1  21278921.828 7
  19205961.531 8                                    -33197.472 8    -23915.050 9
                  19205961.559 7  19205966.000 9
  21900362.508 6                                  -1398510.007 6  -1071768.128 7
                  21900361.828 5  21900366.473 7
  20273478.328 6                                   -640245.260 6   -489668.837 9
                  20273477.180 6  20273482.961 9
 17 10 27 16 54 35.0000000  0 14G05G12G13G15G18G20G21G25G29R03R04R05
                                R18R19
  21475066.297 6  21475061.625 8                   1439712.361 6   1095120.487 8
                                
  24330568.625 6  24330566.652 8                   1977254.202 6   1525471.660 8
                                
  22089887.398 4                                   -600946.866 4   -342952.63245
                                  22089885.59445
  22187308.313 7  22187305.414 9                  -1198555.941 7   -921440.032 9
                                
  24142525.156 6                                   -944371.967 6   -718283.70946
                                  24142521.33646
  20366538.078 7                                    -84801.068 7    -47976.67948
                                  20366532.16448
  24335555.414 5                                   -555664.393 5   -422604.27846
                                  24335551.48846
  23238131.320 6  23238130.504 8  23238130.313 9   1478154.254 6   1140631.503 8
   1093533.846 9                
  20337962.820 7  20337958.965 9                   -311398.495 7   -236864.132 9
                                
  21282675.438 1                                    116680.580 1     55704.146 7
                  21282676.168 1  21282682.340 7
  19206151.219 8                                    -32182.640 8    -23125.706 9
                  19206151.246 7  19206156.004 9
  21897536.406 6                                  -1413617.597 6  -1083518.515 8
                  21897535.961 5  21897541.027 8
  20480292.703 1                                     53277.56311
                                
  20272244.758 6                                   -646845.108 6   -494802.135 9
                  20272244.078 6  20272249.250 9
 17 10 27 16 54 40.0000000  0 13G05G12G13G15G18G20G21G25G29R03R04R05
                                R19
  21477988.086 6  21477983.809 9                   1455068.470 6   1107086.271 9
                                
  24334415.125 6  24334412.359 8                   1997465.971 6   1541221.054 8
                                
  22088832.523 3                                   -606486.224 3   -347269.04245
                                  22088831.82845
  22185058.414 7  22185055.383 9                  -1210376.120 7   -930650.594 9
                                
  24140708.672 5                                   -953917.310 5   -725721.67546
                                  24140705.62146
  20366623.594 7                                    -84354.635 7    -47628.83049
                                  20366617.18449
  24334479.781 5                                   -561315.925 5   -427008.06846
                                  24334476.59046
  23241234.297 6  23241233.910 8  23241234.492 9   1494465.825 6   1153341.812 8
   1105714.534 9                
  20337607.367 7  20337603.320 9                   -313265.289 7   -238318.773 9
                                
  21286441.602 2                                    136830.899 2
                  21286442.215 1
  19206344.578 8                                    -31142.961 8    -22317.076 9
                  19206344.488 7  19206349.180 9
  21894713.406 6                                  -1428710.798 6  -1095257.635 7
                  21894712.727 5  21894717.438 7
  20271014.250 6                                   -653433.571 6   -499926.463 9
                  20271013.453 6  20271018.246 9
 17 10 27 16 54 45.0000000  0 14G02G05G12G13G15G18G20G21G25G29R03R04
                                R05R19
  23080106.711 1                                     16889.65711
                                
  21480912.758 6  21480907.355 9                   1470434.765 6   1119059.991 9
                                
  24338261.188 6  24338258.441 8                   2017679.483 6   1556971.901 8
                                
  22087781.773 1                                   -612009.812 1   -351573.07045
                                  22087780.92645
  22182811.594 7  22182808.688 9                  -1222184.833 7   -939852.191 9
                                
  24138893.695 5                                   -963453.345 5   -733152.35346
                                  24138890.93446
  20366711.406 7                                    -83893.555 7    -47269.55449
                                  20366705.49249
  24333404.219 5                                   -566964.752 5   -431409.78946
                                  24333401.22746
  23244340.828 6  23244339.727 9  23244340.680 9   1510787.229 6   1166059.813 9
   1117902.580 9                
  20337255.750 7  20337251.582 9                   -315115.354 7   -239760.405 9
                                
  21290208.977 1                                    156995.348 1     72006.99017
                  21290208.770 1  21290213.820 7
  19206543.375 8                                    -30078.645 8    -21489.292 9
                  19206542.930 7  19206547.387 9
  21891890.219 6                                  -1443789.853 6  -1106985.720 7
                  21891890.832 5  21891896.570 7
  20269785.383 7                                   -660010.754 7   -505042.007 9
                  20269784.000 6  20269787.883 9
 17 10 27 16 54 50.0000000  0 13G02G05G12G13G15G18G20G21G25G29R04R05
                                R19
  23082216.297 1                                     27958.58911
                                
  21483838.945 6  21483833.879 9                   1485811.392 6   1131041.787 9
                                
  24342107.039 6  24342108.328 8                   2037894.840 6   1572724.011 8
                                
  22086736.156 5                                   -617517.439 5   -355864.84145
                                  22086732.96945
  22180566.328 7  22180562.938 9                  -1233981.950 7   -949044.779 9
                                
  24137080.586 6                                   -972979.910 6   -740575.60046
                                  24137078.31346
  20366801.773 7                                    -83417.759 7    -46898.79648
                                  20366795.87148
  24332330.852 5                                   -572610.791 5   -435809.33646
                                  24332326.81346
  23247448.141 6  23247448.129 9  23247447.141 9   1527118.595 6   1178785.549 9
   1130098.098 9                
  20336907.039 7  20336902.434 9                   -316948.634 7   -241188.953 9
                                
  19206747.031 8                                    -28989.597 8    -20642.238 9
                  19206747.879 7  19206752.434 9
  21889074.578 5                                  -1458854.601 5  -1118702.746 8
                  21889074.133 4  21889078.219 8
  20268557.055 6                                   -666576.613 6   -510148.818 9
                  20268555.789 6  20268561.188 9
 17 10 27 16 54 55.0000000  0 14G02G05G12G13G15G18G20G21G25G29R03R04
                                R05R19
  23084323.039 1                                     39034.044 1
                                
  21486766.453 6  21486761.543 9                   1501197.892 6   1143031.250 9
                                
  24345954.680 6  24345952.270 8                   2058111.730 6   1588477.536 8
                                
  22085689.773 4                                   -623009.518 4   -360144.35445
                                  22085687.43045
  22178323.594 7  22178321.555 9                  -1245767.876 7   -958228.579 9
                                
  24135270.438 6                                   -982497.514 6   -747991.88046
                                  24135268.05946
  20366894.344 7                                    -82927.621 7    -46516.86949
                                  20366888.95749
  24331257.000 5                                   -578254.507 5   -440206.97946
                                  24331252.55546
  23250557.141 6  23250557.266 9  23250557.477 9   1543459.443 6   1191518.683 9
   1142300.646 9                
  20336560.688 7  20336556.629 9                   -318765.464 7   -242604.665 9
                                
  21297751.070 2                                    197366.59212    103406.80617
                  21297751.098 1  21297752.840 7
  19206954.961 8                                    -27876.153 8    -19776.246 9
                  19206955.457 8  19206959.219 9
  21886256.922 5                                  -1473905.474 5  -1130408.971 7
                  21886257.301 4  21886262.945 7
  20267331.836 6                                   -673131.564 6   -515247.101 9
                  20267329.867 6  20267335.395 9
 17 10 27 16 55  0.0000000  0 13G02G05G12G13G15G18G20G21G25G29R04R05
                                R19
  23086429.078 1                                                
                                
  21489695.727 6  21489691.816 9                   1516594.004 6   1155028.215 9
                                
  24349802.633 6  24349800.008 8                   2078329.733 6   1604231.779 8
                                
  22084649.109 6                                   -628486.303 6   -364411.96546
                                  22084645.15646
  22176083.422 7  22176079.340 9                  -1257542.874 7   -967403.917 9
                                
  24133460.680 6                                   -992006.300 6   -755401.29946
                                  24133458.14846
  20366991.273 7                                    -82423.431 7    -46123.97548
                                  20366984.86748
  24330183.984 5                                   -583896.127 5   -444603.11646
                                  24330178.80946
  23253668.164 6  23253668.570 9  23253668.770 9   1559809.539 6   1204258.962 9
   1154510.143 9                
  20336218.523 7  20336213.664 9                   -320566.267 7   -244007.875 9
                                
  19207167.719 8                                    -26738.708 8    -18891.561 9
                  19207167.629 8  19207172.871 9
  21883445.766 5                                  -1488942.675 5  -1142104.531 7
                  21883444.266 5  21883448.836 7
  20266108.328 6                                   -679675.809 6   -520337.059 9
                  20266107.766 6  20266112.125 9
 17 10 27 16 55  5.0000000  0 14G02G05G12G13G15G18G20G21G25G29R03R04
                                R05R19
  23088540.766 1                                     61203.49711
                                
  21492627.500 6  21492623.055 8                   1531999.235 6   1167032.318 8
                                
  24353650.625 6  24353647.664 8                   2098548.428 6   1619986.660 8
                                
  22083609.328 5                                   -633948.212 5   -368668.04546
                                  22083605.60546
  22173843.641 7  22173841.887 9                  -1269307.512 7   -976571.175 9
                                
  24131652.484 6                                  -1001506.833 6   -762804.31546
                                  24131649.57846
  20367089.266 7                                    -81905.733 7    -45720.59949
                                  20367083.95749
  24329109.992 6                                   -589536.322 6   -448997.98746
                                  24329105.61746
  23256781.969 6  23256781.410 9  23256780.340 9   1576168.336 6   1217006.132 9
   1166726.111 9                
  20335878.984 7  20335874.645 9                   -322351.432 7   -245398.926 9
                                
  21305305.742 1                                    237791.86211
                                
  19207383.703 8                                    -25577.765 8    -17988.614 9
                  19207383.848 7  19207388.980 9
  21880634.578 5                                  -1503967.000 5  -1153790.063 7
                  21880632.492 4  21880638.152 7
  20264887.648 6                                   -686209.891 6   -525419.143 9
                  20264886.031 6  20264890.691 9
 17 10 27 16 55 10.0000000  0 14G02G05G12G13G15G18G20G21G25G29R03R04
                                R05R19
  23090650.609 1                                     72297.438 1
                                
  21495561.203 6  21495556.344 9                   1547413.974 6   1179043.799 9
                                
  24357498.789 6  24357495.297 7                   2118768.225 6   1635742.291 7
                                
  22082571.484 4                                   -639394.998 4   -372912.16346
                                  22082569.20346
  22171607.617 7  22171603.863 9                  -1281061.309 7   -985729.892 9
                                
  24129846.008 6                                  -1010998.690 6   -770200.49146
                                  24129843.35946
  20367190.336 7                                    -81374.051 7    -45306.27748
                                  20367184.70748
  24328037.508 6                                   -595174.439 6   -453391.35946
                                  24328033.25846
  23259897.297 6  23259896.086 8  23259896.645 9   1592536.235 6   1229760.243 8
   1178948.877 9                
  20335541.648 7  20335537.383 9                   -324120.450 7   -246777.340 9
                                
  21309085.180 1                                    258024.215 1
                  21309081.805 1
  19207605.008 8                                    -24392.743 8    -17066.901 9
                  19207604.801 7  19207610.227 9
  21877826.516 6                                  -1518977.541 6  -1165465.044 7
                  21877825.836 5  21877829.762 7
  20263668.234 6                                   -692733.324 6   -530492.977 9
                  20263667.910 6  20263671.621 9
 17 10 27 16 55 15.0000000  0 14G02G05G12G13G15G18G20G21G25G29R03R04
                                R05R19
  23092763.922 1                                     83397.706 1
                                
  21498497.211 6  21498491.652 9                   1562838.219 6   1191062.697 9
                                
  24361346.750 6  24361342.020 7                   2138989.084 6   1651498.809 7
                                
  22081538.922 5                                   -644826.345 5   -377144.49046
                                  22081535.87146
  22169372.906 7  22169370.000 9                  -1292804.110 7   -994880.135 9
                                
  24128041.430 6                                  -1020481.797 6   -777589.88646
                                  24128038.93446
  20367294.023 7                                    -80828.347 7    -44881.06348
                                  20367288.36748
  24326965.031 6                                   -600810.608 6   -457783.19046
                                  24326961.17246
  23263013.391 6  23263012.059 8  23263013.086 9   1608913.242 6   1242521.569 8
   1191178.479 9                
  20335207.953 7  20335204.551 9                   -325873.339 7   -248143.244 9
                                
  21312864.367 1                                    278270.395 1    131080.06517
                  21312863.219 1  21312870.980 7
  19207831.156 8                                    -23183.885 8    -16126.679 9
                  19207830.832 7  19207836.176 9
  21875022.000 6                                  -1533974.542 6  -1177129.361 7
                  21875020.969 5  21875024.414 7
  20262450.719 7                                   -699246.017 7   -535558.402 9
                  20262449.219 6  20262453.227 9
 17 10 27 16 55 20.0000000  0 14G02G05G12G13G15G18G20G21G25G29R03R04
                                R05R19
  23094876.836 1                                     94503.849 1
                                
  21501433.336 6  21501428.430 9                   1578271.628 6   1203088.729 9
                                
  24365194.344 6  24365189.777 7                   2159210.714 6   1667255.903 7
                                
  22080507.609 4                                   -650242.797 4   -381365.07646
                                  22080505.00046
  22167140.359 7  22167137.270 9                  -1304536.336 7  -1004022.133 9
                                
  24126238.641 6                                  -1029956.541 6   -784972.78046
                                  24126235.76646
  20367400.406 7                                    -80268.963 7    -44445.17148
                                  20367394.77048
  24325893.055 6                                   -606445.072 6   -462173.67546
                                  24325888.96546
  23266131.281 6  23266130.703 9  23266131.039 9   1625299.088 6   1255289.754 9
   1203414.639 9                
  20334877.414 7  20334873.781 9                   -327610.462 7   -249496.841 9
                                
  21316648.445 1                                    298529.421 1    146837.139 7
                  21316648.238 1  21316654.891 7
  19208061.656 8                                    -21951.296 8    -15168.002 9
                  19208062.270 7  19208066.965 9
  21872218.758 6                                  -1548958.378 6  -1188783.440 7
                  21872217.258 5  21872220.750 7
  20261234.734 6                                   -705748.485 6   -540615.861 9
                  20261233.938 6  20261238.789 9
 17 10 27 16 55 25.0000000  0 14G02G05G12G13G15G18G20G21G25G29R03R04
                                R05R19
  23096993.055 1                                    105616.230 1
                                
  21504371.578 6  21504366.867 9                   1593714.439 6   1215122.091 9
                                
  24369042.523 6  24369036.496 7                   2179433.271 6   1683013.732 7
                                
  22079481.328 5                                   -655644.044 5   -385573.87546
                                  22079477.17646
  22164910.102 7  22164906.578 9                  -1316257.693 7  -1013155.659 9
                                
  24124437.219 6                                  -1039422.701 6   -792348.97246
                                  24124434.05946
  20367509.531 7                                    -79695.714 7    -43998.49248
                                  20367503.66848
  24324820.352 6                                   -612077.661 6   -466562.73046
                                  24324816.89546
  23269251.125 6  23269250.480 9  23269250.848 9   1641693.902 6   1268064.912 9
   1215657.510 9                
  20334550.227 6  20334546.121 9                   -329331.559 6   -250837.979 9
                                
  21320433.813 1                                    318801.848 1    162604.537 7
                  21320434.895 1  21320441.836 7
  19208296.516 8                                    -20694.831 8    -14190.750 9
                  19208296.309 7  19208300.891 9
  21869417.273 6                                  -1563928.653 6  -1200426.962 7
                  21869416.594 5  21869420.750 7
  20260020.516 6                                   -712240.173 6   -545664.945 9
                  20260020.309 6  20260025.098 9
 17 10 27 16 55 30.0000000  0 14G02G05G12G13G15G18G20G21G25G29R03R04
                                R05R19
  23099108.398 1                                                
                                
  21507311.773 6  21507307.938 9                   1609166.467 6   1227162.634 9
                                
  24372889.945 5  24372883.371 7                   2199656.585 5   1698772.070 7
                                
  22078455.500 5                                   -661030.221 5   -389770.84646
                                  22078451.91046
  22162681.805 7  22162678.309 9                  -1327968.415 7  -1022280.901 9
                                
  24122636.852 6                                  -1048880.390 6   -799718.58946
                                  24122634.76646
  20367621.242 7                                    -79108.741 7    -43541.11348
                                  20367615.61348
  24323749.078 6                                   -617708.503 6   -470950.37746
                                  24323745.00046
  23272373.000 6  23272372.422 9  23272372.418 9   1658097.503 6   1280846.947 9
   1227906.943 9                
  20334225.281 7  20334221.465 9                   -331036.838 7   -252166.743 9
                                
  21324226.703 1                                    339087.447 1    178382.222 7
                  21324224.852 1  21324231.688 7
  19208534.766 8                                    -19414.760 8    -13195.155 9
                  19208534.793 7  19208540.242 9
  21866619.586 6                                  -1578885.511 6  -1212060.054 7
                  21866618.906 5  21866623.035 7
  20258809.422 6                                   -718721.452 6   -550705.962 9
                  20258808.859 6  20258813.691 9
 17 10 27 16 55 35.0000000  0 14G02G05G12G13G15G18G20G21G25G29R03R04
                                R05R19
  23101223.609 1                                                
                                
  21510254.406 6  21510249.625 9                   1624627.771 6   1239210.419 9
                                
  24376738.688 5  24376731.219 6                   2219880.733 5   1714531.140 6
                                
  22077433.742 5                                   -666401.271 5   -393956.05646
                                  22077430.28146
  22160455.336 7  22160451.254 9                  -1339668.415 7  -1031397.795 9
                                
  24120839.039 6                                  -1058329.607 6   -807081.60846
                                  24120836.11346
  20367735.977 7                                    -78508.028 7    -43073.02848
                                  20367730.07448
  24322678.000 5                                   -623337.534 5   -475336.66546
                                  24322672.96946
  23275496.188 6  23275495.387 9  23275495.645 9   1674509.952 6   1293635.853 9
   1240162.964 9                
  20333903.461 7  20333900.238 9                   -332726.232 7   -253483.160 9
                                
  21328018.961 1                                    359385.954 1    194169.971 7
                  21328018.988 1  21328023.355 7
  19208778.102 7                                    -18110.905 7    -12181.029 9
                  19208778.480 7  19208783.012 9
  21863824.055 6                                  -1593829.070 6  -1223682.797 7
                  21863823.375 5  21863828.270 7
  20257600.000 6                                   -725192.256 6   -555738.804 9
                  20257598.266 6  20257603.602 9
 17 10 27 16 55 40.0000000  0 14G02G05G12G13G15G18G20G21G25G29R03R04
                                R05R19
  23103344.938 1                                    138989.44111
                                
  21513198.836 6  21513193.930 9                   1640098.047 6   1251265.165 9
                                
  24380588.164 5  24380579.086 6                   2240105.415 5   1730290.630 6
                                
  22076413.094 4                                   -671757.484 4   -398129.70846
                                  22076410.98046
  22158230.734 7  22158227.664 9                  -1351357.913 7  -1040506.476 9
                                
  24119043.227 6                                  -1067770.529 6   -814438.15346
                                  24119039.51246
  20367852.555 7                                    -77893.787 7    -42594.40148
                                  20367847.09848
  24321606.945 5                                   -628965.094 5   -479721.74146
                                  24321602.00046
  23278621.172 6  23278619.836 9  23278619.602 9   1690931.003 6   1306431.481 9
   1252425.447 9                
  20333585.453 7  20333581.594 9                   -334399.861 7   -254787.285 9
                                
  21331812.820 1                                    379697.585 1    209967.914 7
                  21331812.496 1  21331818.109 7
  19209026.234 8                                    -16783.480 8    -11148.586 9
                  19209026.262 7  19209031.117 9
  21861030.547 6                                  -1608759.376 6  -1235295.230 7
                  21861030.809 5  21861034.422 7
  20256392.234 6                                   -731652.607 6   -560763.525 9
                  20256391.086 5  20256396.523 9
 17 10 27 16 55 45.0000000  0 14G02G05G12G13G15G18G20G21G25G29R03R04
                                R05R19
  23105462.867 1                                    150125.182 1
                                
  21516144.102 6  21516139.617 9                   1655577.022 6   1263326.704 9
                                
  24384436.695 5  24384427.688 6                   2260330.387 5   1746050.373 6
                                
  22075396.031 5                                   -677099.036 5   -402291.98246
                                  22075394.30946
  22156007.719 7  22156004.992 9                  -1363037.141 7  -1049607.172 9
                                
  24117248.570 6                                  -1077203.476 6   -821788.53446
                                  24117244.08246
  20367971.703 7                                    -77266.439 7    -42105.55948
                                  20367966.12548
  24320536.195 5                                   -634591.356 5   -484105.85646
                                  24320530.84046
  23281747.297 6  23281746.207 9  23281745.918 9   1707360.346 6   1319233.548 9
   1264694.101 9                
  20333269.883 7  20333265.863 9                   -336058.067 7   -256079.392 9
                                
  21335610.070 1                                    400021.634 1    225775.460 8
                  21335608.805 1  21335615.805 8
  19209278.211 8                                    -15432.884 8    -10098.127 9
                  19209277.887 7  19209283.109 9
  21858240.977 6                                  -1623676.736 6  -1246897.609 7
                  21858239.477 5  21858243.266 7
  20255186.375 6                                   -738103.176 6   -565780.603 9
                  20255185.227 5  20255190.699 9
 17 10 27 16 55 50.0000000  0 13G02G05G12G13G15G18G20G21G25G29R04R05
                                R19
  23107583.500 1                                    161266.85411
                                
  21519090.805 6  21519086.469 9                   1671064.778 6   1275395.077 9
                                
  24388285.547 6  24388277.426 7                   2280555.806 6   1761810.468 7
                                
  22074383.719 5                                   -682425.733 5   -406442.64246
                                  22074380.59846
  22153787.758 7  22153785.367 9                  -1374705.894 7  -1058699.735 9
                                
  24115454.672 6                                  -1086628.217 6   -829132.48646
                                  24115450.41846
  20368093.297 7                                    -76625.666 7    -41606.25649
                                  20368088.03149
  24319465.625 5                                   -640216.274 5   -488488.89246
                                  24319460.62146
  23284874.680 6  23284874.723 9  23284873.320 9   1723798.086 6   1332042.204 9
   1276969.005 9                
  20332957.539 7  20332953.219 9                   -337700.718 7   -257359.398 9
                                
  19209535.453 8                                    -14058.841 8     -9029.442 9
                  19209536.066 7  19209540.148 9
  21855451.688 5                                  -1638581.186 5  -1258489.908 7
                  21855450.539 4  21855455.168 7
  20253981.836 6                                   -744543.536 6   -570789.745 9
                  20253981.273 5  20253987.852 9
 17 10 27 16 55 55.0000000  0 13G02G05G12G13G15G18G20G21G25G29R04R05
                                R19
  23109706.211 1                                    172414.129 1
                                
  21522039.891 6  21522035.406 9                   1686561.354 6   1287470.281 9
                                
  24392135.000 6  24392127.500 7                   2300781.541 6   1777570.814 7
                                
  22073373.805 5                                   -687737.767 5   -410581.89646
                                  22073369.66446
  22151568.961 7  22151566.078 9                  -1386364.351 7  -1067784.223 9
                                
  24113662.883 5                                  -1096044.936 5   -836470.12246
                                  24113658.62546
  20368218.406 7                                    -75971.540 7    -41096.53748
                                  20368212.02748
  24318395.422 5                                   -645839.774 5   -492870.89346
                                  24318390.27046
  23288004.523 6  23288004.949 9  23288003.492 9   1740244.249 6   1344857.380 9
   1289250.234 9                
  20332647.648 7  20332643.805 9                   -339327.766 7   -258627.238 9
                                
  19209795.656 8                                    -12661.630 8     -7942.718 9
                  19209795.449 7  19209800.457 9
  21852665.953 5                                  -1653472.315 5  -1270071.904 8
                  21852664.102 4  21852669.207 8
  20252780.719 5                                   -750973.585 5   -575790.841 9
                  20252778.750 4  20252785.445 9
 17 10 27 16 56  0.0000000  0 13G02G05G12G13G15G18G20G21G25G29R04R05
                                R19
  23111826.031 1                                                
                                
  21524990.359 6  21524986.707 9                   1702066.802 6   1299552.513 9
                                
  24395983.742 6  24395978.172 7                   2321007.731 6   1793331.445 7
                                
  22072365.555 5                                   -693034.929 5   -414709.54346
                                  22072361.89546
  22149352.914 7  22149349.867 9                  -1398012.301 7  -1076860.570 9
                                
  24111871.914 6                                  -1105453.398 6   -843801.40246
                                  24111868.59846
  20368344.664 7                                    -75303.952 7    -40576.36448
                                  20368339.88748
  24317324.969 5                                   -651461.854 5   -497251.76346
                                  24317320.12546
  23291135.023 6  23291135.531 9  23291134.211 9   1756698.846 6   1357679.153 9
   1301537.737 9                
  20332341.219 7  20332337.039 9                   -340939.183 7   -259882.875 9
                                
  19210061.148 8                                    -11240.894 8     -6837.705 9
                  19210061.645 7  19210066.387 9
  21849882.344 5                                  -1668350.335 5  -1281643.631 7
                  21849881.195 4  21849886.867 7
  20251578.461 5                                   -757393.531 5   -580784.180 9
                  20251577.195 4  20251585.102 9
 17 10 27 16 56  5.0000000  0 14G02G05G12G13G15G18G20G21G25G29R03R04
                                R05R19
  23113949.930 1                                    194726.42711
                                
  21527942.289 6  21527938.820 9                   1717581.660 6   1311642.021 9
                                
  24399832.125 6  24399827.809 7                   2341234.785 6   1809092.895 7
                                
  22071359.695 5                                   -698316.796 5   -418825.24146
                                  22071356.87546
  22147138.703 7  22147135.461 9                  -1409649.196 7  -1085928.270 9
                                
  24110083.602 5                                  -1114853.121 5   -851125.86846
                                  24110079.32446
  20368475.289 7                                    -74622.483 7    -40045.33849
                                  20368469.28549
  24316255.789 5                                   -657081.934 5   -501630.97846
                                  24316250.58646
  23294267.969 6  23294268.652 9  23294267.375 9   1773162.369 6   1370507.893 9
   1313831.932 9                
  20332038.125 7  20332033.328 9                   -342534.446 7   -261125.949 9
                                
  21350820.367 1                                                
                  21350820.512 1
  19210331.297 8                                     -9796.165 8     -5714.033 9
                  19210332.027 7  19210336.102 9
  21847100.930 6                                  -1683214.755 6  -1293204.834 7
                  21847101.660 4  21847105.879 7
  20250380.477 5                                   -763802.637 5   -585769.025 9
                  20250379.445 4  20250386.492 9
 17 10 27 16 56 10.0000000  0 14G02G05G12G13G15G18G20G21G25G29R03R04
                                R05R19
  23116079.836 1                                    205891.667 1
                                
  21530896.523 6  21530892.504 9                   1733105.401 6   1323738.423 9
                                
  24403681.156 6  24403678.422 7                   2361462.373 6   1824854.750 7
                                
  22070358.102 5                                   -703583.616 5   -422929.30546
                                  22070354.72746
  22144925.828 7  22144923.250 9                  -1421275.482 7  -1094987.672 9
                                
  24108297.313 6                                  -1124244.566 6   -858443.84546
                                  24108292.01646
  20368606.727 7                                    -73927.492 7    -39503.79849
                                  20368601.35249
  24315186.477 5                                   -662700.489 5   -506009.10346
                                  24315181.82446
  23297402.484 5  23297402.887 9  23297402.883 9   1789634.402 5   1383343.194 9
   1326132.442 9                
  20331737.094 7  20331733.219 9                   -344113.982 7   -262356.745 9
                                
  21354631.383 1                                     62706.93211     15223.60017
                  21354630.820 1  21354633.121 7
  19210605.016 8                                     -8328.124 8     -4572.223 9
                  19210605.277 7  19210609.500 9
  21844322.977 5                                  -1698065.827 5  -1304755.647 7
                  21844323.004 4  21844327.805 7
  20249184.844 5                                   -770201.380 5   -590745.825 9
                  20249182.641 4  20249190.027 9
 17 10 27 16 56 15.0000000  0 14G02G05G12G13G15G18G20G21G25G29R03R04
                                R05R19
  23118206.430 1                                                
                                
  21533852.188 5  21533848.691 9                   1748637.575 5   1335841.409 9
                                
  24407530.461 6  24407526.605 7                   2381689.853 6   1840616.249 7
                                
  22069358.461 4                                   -708836.150 4   -427022.17446
                                  22069355.74646
  22142714.844 7  22142711.801 9                  -1432891.775 7  -1104039.306 9
                                
  24106512.000 5                                  -1133628.315 5   -865755.83546
                                  24106506.47346
  20368741.172 7                                    -73219.626 7    -38952.20748
                                  20368736.18048
  24314117.711 5                                   -668318.138 5   -510386.45546
                                  24314112.99246
  23300539.109 6  23300539.289 9  23300539.012 9   1806114.328 6   1396184.630 9
   1338438.896 9                
  20331439.273 7  20331435.523 9                   -345678.319 7   -263575.702 9
                                
  21358440.672 2                                     83107.28112     31090.69617
                  21358440.348 1  21358442.672 7
  19210884.047 8                                     -6837.055 8     -3412.492 9
                  19210884.543 7  19210888.199 9
  21841548.172 6                                  -1712904.247 6  -1316296.659 7
                  21841546.906 5  21841550.703 7
  20247991.102 5                                   -776590.293 5   -595715.062 9
                  20247989.719 4  20247995.691 9
 17 10 27 16 56 20.0000000  0 14G02G05G12G13G15G18G20G21G25G29R03R04
                                R05R19
  23120333.102 1                                                
                                
  21536809.805 6  21536805.969 9                   1764178.134 6   1347950.948 9
                                
  24411380.086 6  24411376.902 8                   2401917.264 6   1856377.945 8
                                
  22068361.281 5                                   -714074.228 5   -431103.76046
                                  22068358.45746
  22140506.844 7  22140503.598 9                  -1444497.853 7  -1113083.031 9
                                
  24104727.055 5                                  -1143004.279 5   -873061.76946
                                  24104722.05546
  20368878.719 7                                    -72498.729 7    -38390.48249
                                  20368873.49249
  24313048.969 5                                   -673934.729 5   -514763.03246
                                  24313043.95346
  23303676.836 5  23303676.297 9  23303675.371 9   1822602.221 5   1409032.345 9
   1350751.238 9                
  20331145.070 7  20331140.750 9                   -347227.420 7   -264782.798 9
                                
  21362254.242 1                                    103519.693 1     46966.942 7
                  21362255.441 1  21362255.750 7
  19211166.766 8                                     -5323.076 8     -2234.958 9
                  19211166.559 8  19211170.016 9
  21838774.789 6                                  -1727729.856 6  -1327827.665 7
                  21838774.344 5  21838777.992 7
  20246798.766 5                                   -782969.464 5   -600676.581 9
                  20246796.914 4  20246803.371 9
 17 10 27 16 56 25.0000000  0 13G05G12G13G15G18G20G21G25G29R03R04R05
                                R19
  21539767.805 5  21539765.004 9                   1779727.121 5   1360067.055 9
                                
  24415228.891 5  24415227.734 8                   2422144.824 5   1872139.658 8
                                
  22067366.750 5                                   -719297.573 5   -435173.91446
                                  22067364.91446
  22138299.789 7  22138297.086 9                  -1456093.695 7  -1122118.737 9
                                
  24102943.586 5                                  -1152372.343 5   -880361.53046
                                  24102939.54746
  20369018.477 7                                    -71764.748 7    -37818.52948
                                  20369012.58648
  24311980.156 5                                   -679550.150 5   -519138.68146
                                  24311974.94546
  23306815.695 6  23306815.582 9  23306814.457 9   1839098.225 6   1421886.398 9
   1363069.710 9                
  20330853.055 7  20330849.043 9                   -348761.060 7   -265977.845 9
                                
  21366069.047 2                                    123944.720 2     62853.076 7
                  21366069.777 1  21366072.977 7
  19211453.328 8                                     -3786.107 8     -1039.544 9
                  19211453.590 7  19211457.680 9
  21836003.063 6                                  -1742542.553 6  -1339348.672 7
                  21836003.207 5  21836006.883 7
  20245608.945 6                                   -789338.373 6   -605630.237 9
                  20245608.973 6  20245613.438 9
 17 10 27 16 56 30.0000000  0 13G05G12G13G15G18G20G21G25G29R03R04R05
                                R19
  21542729.039 5  21542725.902 9                   1795284.971 5   1372190.023 9
                                
  24419078.195 6  24419077.391 8                   2442372.667 6   1887901.595 8
                                
  22066375.625 5                                   -724506.098 5   -439232.43146
                                  22066374.03146
  22136094.742 7  22136092.656 9                  -1467678.996 7  -1131146.248 9
                                
  24101162.344 5                                  -1161732.299 5   -887654.95746
                                  24101158.74646
  20369160.492 7                                    -71017.432 7    -37236.22048
                                  20369155.27048
  24310911.867 5                                   -685164.184 5   -523513.22946
                                  24310906.92246
  23309956.672 5  23309956.539 9  23309955.926 9   1855602.523 5   1434746.880 9
   1375394.324 9                
  20330564.148 7  20330559.703 9                   -350279.128 7   -267160.756 9
                                
  21369888.125 3                                    144382.091 3     78748.844 7
                  21369886.508 2  21369890.336 7
  19211745.016 8                                     -2225.644 8       174.157 9
                  19211745.746 7  19211749.133 9
  21833234.813 6                                  -1757342.219 6  -1350859.492 7
                  21833234.133 5  21833238.465 7
  20244419.828 6                                   -795697.120 6   -610575.924 9
                  20244419.504 5  20244423.648 9
 17 10 27 16 56 35.0000000  0 13G05G12G13G15G18G20G21G25G29R03R04R05
                                R19
  21545691.258 5  21545687.465 9                   1810851.001 5   1384319.402 9
                                
  24422927.234 5  24422925.496 8                   2462600.209 5   1903663.271 8
                                
  22065387.445 5                                   -729700.265 5   -443279.85946
                                  22065384.98446
  22133892.734 7  22133889.297 9                  -1479254.282 7  -1140165.932 9
                                
  24099382.438 5                                  -1171084.579 5   -894942.45546
                                  24099379.09046
  20369305.398 7                                    -70257.308 7    -36643.91048
                                  20369299.47748
  24309843.711 5                                   -690777.380 5   -527887.15446
                                  24309839.12546
  23313099.445 5  23313098.848 9  23313097.660 9   1872114.585 5   1447613.386 9
   1387724.767 9                
  20330278.094 7  20330273.637 9                   -351782.079 7   -268331.896 9
                                
  21373708.117 3                                    164831.472 3     94653.899 7
                  21373707.086 2  21373711.445 7
  19212041.180 8                                      -642.470 8      1405.511 9
                  19212041.793 7  19212045.023 9
  21830468.305 6                                  -1772129.051 6  -1362360.347 7
                  21830468.098 5  21830472.066 7
  20243233.563 6                                   -802046.138 6   -615514.055 9
                  20243232.531 6  20243236.500 9
 17 10 27 16 56 40.0000000  0 13G05G12G13G15G18G20G21G25G29R03R04R05
                                R19
  21548654.773 5  21548651.328 9                   1826425.368 5   1396455.269 9
                                
  24426775.844 5  24426775.254 8                   2482827.635 5   1919424.848 8
                                
  22064401.313 5                                   -734879.949 5   -447315.97946
                                  22064398.96946
  22131691.828 7  22131688.637 9                  -1490819.434 7  -1149177.749 9
                                
  24097604.352 5                                  -1180429.164 5   -902223.88546
                                  24097600.76646
  20369452.367 7                                    -69484.219 7    -36041.50748
                                  20369446.93448
  24308775.664 5                                   -696389.598 5   -532260.27946
                                  24308771.07046
  23316242.703 5  23316242.605 9  23316241.699 9   1888634.462 5   1460486.028 9
   1400061.031 9                
  20329994.977 7  20329990.793 9                   -353269.765 7   -269491.144 9
                                
  21377530.703 3                                    185292.896 3    110568.417 7
                  21377530.730 1  21377532.324 7
  19212341.008 8                                       963.586 8      2654.671 9
                  19212340.563 7  19212344.234 9
  21827705.188 6                                  -1786903.130 6  -1373851.289 7
                  21827704.863 5  21827708.512 7
  20242048.453 6                                   -808385.252 6   -620444.481 9
                  20242047.773 6  20242051.098 9
 17 10 27 16 56 45.0000000  0 13G05G12G13G15G18G20G21G25G29R03R04R05
                                R19
  21551620.438 5  21551617.066 9                   1842008.557 5   1408598.006 9
                                
  24430624.875 5  24430623.770 8                   2503055.489 5   1935186.787 8
                                
  22063419.008 5                                   -740044.631 5   -451340.41946
                                  22063416.37146
  22129492.828 6  22129489.824 9                  -1502373.862 6  -1158181.194 9
                                
  24095827.750 5                                  -1189765.375 5   -909498.89546
                                  24095823.77346
  20369602.109 7                                    -68697.689 7    -35428.62848
                                  20369596.30948
  24307708.648 5                                   -702000.304 5   -536632.26346
                                  24307703.48446
  23319388.047 5  23319387.641 9  23319387.102 9   1905162.782 5   1473365.219 9
   1412403.612 9                
  20329715.016 7  20329710.883 9                   -354741.684 7   -270638.090 9
                                
  21381353.633 3                                    205767.109 3    126492.784 7
                  21381352.953 1  21381356.980 7
  19212645.156 8                                      2593.168 8      3922.126 9
                  19212645.418 7  19212648.840 9
  21824943.078 6                                  -1801663.858 6  -1385331.859 7
                  21824942.516 5  21824947.152 7
  20240864.680 6                                   -814713.958 6   -625366.816 9
                  20240865.410 6  20240868.711 9
 17 10 27 16 56 50.0000000  0 13G05G12G13G15G18G20G21G25G29R03R04R05
                                R19
  21554587.563 2  21554583.102 9                   1857600.108 2   1420747.272 9
                                
  24434473.930 5  24434472.887 8                   2523283.145 5   1950948.607 8
                                
  22062439.641 5                                   -745194.791 5   -455353.56446
                                  22062436.11746
  22127296.695 7  22127294.102 9                  -1513918.104 7  -1167176.699 9
                                
  24094053.797 5                                  -1199093.863 5   -916767.81046
                                  24094048.73046
  20369754.398 7                                    -67898.212 7    -34805.66848
                                  20369748.64548
  24306640.922 5                                   -707610.083 5   -541003.56546
                                  24306635.38746
  23322535.266 5  23322533.984 9  23322534.117 9   1921698.926 5   1486250.522 9
   1424751.990 9                
  20329437.836 7  20329433.508 9                   -356198.300 7   -271773.123 9
                                
  21385178.656 4                                    226253.445 4    142426.406 8
                  21385178.684 2  21385184.457 8
  19212954.125 8                                      4245.544 8      5207.297 9
                  19212953.918 7  19212957.063 9
  21822183.680 5                                  -1816411.769 5  -1396802.377 7
                  21822183.000 5  21822188.945 7
  20239683.219 6                                   -821032.741 6   -630281.359 9
                  20239683.012 6  20239686.961 9
 17 10 27 16 56 55.0000000  0 13G05G12G13G15G18G20G21G25G29R03R04R05
                                R19
  21557555.594 3  21557551.977 9                   1873200.029 3   1432903.053 9
                                
  24438322.891 5  24438320.910 8                   2543510.779 5   1966710.325 8
                                
  22061462.961 5                                   -750330.243 5   -459355.22146
                                  22061459.38346
  22125101.617 7  22125098.063 9                  -1525451.845 7  -1176164.044 9
                                
  24092280.250 5                                  -1208414.383 5   -924030.51346
                                  24092274.75446
  20369908.758 7                                    -67085.731 7    -34172.58248
                                  20369903.58248
  24305573.031 5                                   -713218.647 5   -545373.90646
                                  24305568.50446
  23325681.094 5  23325682.328 9  23325683.137 9   1938243.070 5   1499142.048 9
   1437106.374 9                
  20329163.563 7  20329159.473 9                   -357639.494 7   -272896.125 9
                                
  21389009.430 3                                    246751.870 3    158369.712 7
                  21389009.223 2  21389013.793 7
  19213266.852 8                                      5921.092 8      6510.496 9
                  19213267.465 7  19213270.719 9
  21819425.758 5                                  -1831146.711 5  -1408262.913 7
                  21819426.137 4  21819433.102 7
  20238505.867 6                                   -827341.398 6   -635188.101 9
                  20238504.016 5  20238507.492 9
 17 10 27 16 57  0.0000000  0 13G05G12G13G15G18G20G21G25G29R03R04R05
                                R19
  21560526.656 6  21560521.660 9                   1888808.122 6   1445065.210 9
                                
  24442172.070 5  24442170.301 8                   2563738.130 5   1982471.937 8
                                
  22060487.242 5                                   -755451.426 5   -463345.72946
                                  22060484.87146
  22122908.594 7  22122904.723 9                  -1536975.683 7  -1185143.638 9
                                
  24090507.125 2                                  -1217727.294 2   -931287.34946
                                  24090503.38746
  20370065.508 7                                    -66260.526 7    -33529.53548
                                  20370060.86348
  24304506.789 5                                   -718826.393 5   -549743.56746
                                  24304501.81646
  23328832.508 6  23328832.191 9  23328831.645 9   1954794.852 6   1512039.544 9
   1449466.455 9                
  20328892.586 7  20328887.852 9                   -359065.577 7   -274007.354 9
                                
  21392839.773 1                                    267262.151 1    174322.101 8
                  21392841.441 1  21392844.953 8
  19213584.461 8                                      7619.308 8      7831.335 9
                  19213583.898 7  19213587.148 9
  21816672.398 5                                  -1845868.831 5  -1419713.452 7
                  21816672.895 4  21816678.559 7
  20237327.531 7                                   -833640.175 7   -640087.131 9
                  20237325.445 6  20237329.852 9
 17 10 27 16 57  5.0000000  0 13G05G12G13G15G18G20G21G25G29R03R04R05
                                R19
  21563498.141 5  21563494.203 9                   1904424.839 5   1457234.076 9
                                
  24446021.273 5  24446019.363 8                   2583965.571 5   1998233.493 8
                                
  22059516.078 5                                   -760557.700 5   -467324.65946
                                  22059513.05146
  22120717.461 7  22120713.547 9                  -1548488.975 7  -1194115.049 9
                                
  24088736.547 3                                  -1227031.998 3   -938537.75145
                                  24088732.99645
  20370225.750 7                                    -65422.007 7    -32876.16248
                                  20370220.75848
  24303440.047 5                                   -724432.771 5   -554112.16546
                                  24303435.24246
  23331981.922 5  23331983.074 9  23331982.469 9   1971354.717 5   1524943.332 9
   1461832.580 9                
  20328623.219 7  20328619.004 9                   -360476.022 7   -275106.415 9
                                
  21396674.617 1                                    287784.844 1    190284.138 8
                  21396676.637 1  21396678.574 8
  19213905.242 8                                      9340.760 8      9170.262 9
                  19213905.270 7  19213908.699 9
  21813921.406 5                                  -1860577.806 5  -1431153.734 8
                  21813921.199 4  21813927.371 8
  20236149.992 6                                   -839928.827 6   -644978.285 9
                  20236149.785 5  20236154.422 9
 17 10 27 16 57 10.0000000  0 13G05G12G13G15G18G20G21G25G29R03R04R05
                                R19
  21566470.500 5  21566467.379 9                   1920049.882 5   1469409.452 9
                                
  24449871.250 4  24449868.496 8                   2604192.962 4   2013995.127 8
                                
  22058547.109 5                                   -765649.239 5   -471292.10046
                                  22058544.60946
  22118529.023 7  22118525.355 9                  -1559991.974 7  -1203078.396 9
                                
  24086967.578 2                                  -1236328.914 2   -945782.06045
                                  24086963.93045
  20370387.609 7                                    -64570.546 7    -32212.65548
                                  20370382.32848
  24302373.352 5                                   -730038.071 5   -558479.92746
                                  24302368.46946
  23335136.352 6  23335135.070 9  23335134.820 9   1987922.540 6   1537853.298 9
   1474204.621 9                
  20328358.383 7  20328353.656 9                   -361871.060 7   -276193.467 9
                                
  21400510.383 2                                    308319.549 2    206255.595 8
                  21400514.047 1  21400514.801 8
  19214230.836 8                                     11085.283 8     10527.118 9
                  19214230.629 7  19214234.566 9
  21811172.828 5                                  -1875273.844 5  -1442584.017 7
                  21811171.797 4  21811178.281 7
  20234977.148 6                                   -846207.295 6   -649861.559 9
                  20234976.824 6  20234981.063 9
 17 10 27 16 57 15.0000000  0 12G05G12G13G15G18G20G21G25G29R04R05R19
  21569446.313 6  21569442.262 9                   1935683.440 6   1481591.434 9
                                
  24453720.773 5  24453717.863 8                   2624420.283 5   2029756.615 8
                                
  22057581.047 5                                   -770726.053 5   -475248.12746
                                  22057578.05946
  22116341.883 7  22116338.348 9                  -1571484.448 7  -1212033.602 9
                                
  24085199.188 3                                  -1245617.57613   -953020.01555
                                  24085196.14145
  20370551.648 7                                    -63705.935 7    -31538.91348
                                  20370546.40248
  24301307.203 5                                   -735642.370 5   -562846.88646
                                  24301301.86746
  23338291.430 6  23338289.809 9  23338289.430 9   2004498.291 6   1550769.410 9
   1486582.611 9                
  20328095.852 7  20328091.684 9                   -363250.473 7   -277268.353 9
                                
  19214560.852 7                                     12852.920 7     11901.955 9
                  19214561.230 7  19214565.129 9
  21808425.539 5                                  -1889956.738 5  -1454004.019 8
                  21808424.508 4  21808431.250 8
  20233805.430 6                                   -852475.621 6   -654736.932 9
                  20233804.516 6  20233808.578 9
 17 10 27 16 57 20.0000000  0 12G05G12G13G15G18G20G21G25G29R04R05R19
  21572420.492 4  21572419.281 9                   1951325.198 4   1493779.775 9
                                
  24457570.438 5  24457566.621 8                   2644647.268 5   2045517.960 8
                                
  22056618.570 5                                   -775788.318 5   -479192.72846
                                  22056615.56646
  22114156.688 7  22114154.328 9                  -1582966.699 7  -1220980.817 9
                                
  24083433.625 4                                  -1254898.58014   -960251.85455
                                  24083430.07445
  20370719.094 7                                    -62828.456 7    -30855.17948
                                  20370713.52348
  24300241.109 5                                   -741245.535 5   -567213.01646
                                  24300236.00446
  23341446.523 6  23341445.855 9  23341444.758 9   2021081.823 6   1563691.650 9
   1498966.390 9                
  20327836.305 7  20327832.184 9                   -364614.679 7   -278331.361 9
                                
  19214895.078 8                                     14643.436 8     13294.591 9
                  19214895.340 7  19214898.332 9
  21805681.383 5                                  -1904626.564 5  -1465413.898 8
                  21805680.469 4  21805687.770 8
  20232635.578 6                                   -858733.853 6   -659604.424 9
                  20232635.488 5  20232638.762 9
 17 10 27 16 57 25.0000000  0 12G05G12G13G15G18G20G21G25G29R04R05R19
  21575401.141 7  21575396.621 9                   1966975.260 7   1505974.671 9
                                
  24461419.320 5  24461415.574 8                   2664874.142 5   2061279.127 8
                                
  22055657.188 5                                   -780836.026 5   -483126.00346
                                  22055655.38746
  22111973.844 7  22111970.770 9                  -1594438.646 7  -1229919.979 9
                                
  24081667.359 2                                  -1264171.95412   -967477.87755
                                  24081665.71545
  20370888.484 7                                    -61938.014 7    -30161.32548
                                  20370882.59048
  24299174.125 5                                   -746847.802 5   -571578.35046
                                  24299169.89546
  23344603.383 6  23344603.129 9  23344602.324 9   2037673.116 6   1576619.914 9
   1511355.984 9                
  20327579.891 7  20327575.883 9                   -365963.463 7   -279382.366 9
                                
  19215233.320 8                                     16456.892 8     14705.084 9
                  19215234.051 7  19215238.078 9
  21802939.367 5                                  -1919283.605 5  -1476813.768 8
                  21802938.805 4  21802945.746 8
  20231466.828 7                                   -864982.131 7   -664464.220 9
                  20231466.266 6  20231470.387 9
 17 10 27 16 57 30.0000000  0 12G05G12G13G15G18G20G21G25G29R04R05R19
  21578380.680 7  21578376.391 9                   1982634.229 7   1518176.409 9
                                
  24465267.609 5  24465263.785 8                   2685101.348 5   2077040.619 8
                                
  22054700.242 5                                   -785868.439 5   -487047.38946
                                  22054698.11746
  22109792.742 7  22109789.570 9                  -1605899.663 7  -1238850.681 9
                                
  24079905.750 2                                                
                                  24079902.77046
  20371060.617 7                                    -61034.168 7    -29456.99848
                                  20371055.05948
  24298107.883 5                                   -752448.400 5   -575942.43746
                                  24298103.77746
  23347761.734 6  23347762.309 9  23347761.445 9   2054272.763 6   1589554.670 9
   1523751.803 9                
  20327326.922 7  20327321.719 9                   -367296.311 7   -280420.953 9
                                
  19215576.789 8                                     18293.787 8     16133.722 9
                  19215577.637 7  19215580.223 9
  21800199.719 5                                  -1933927.016 5  -1488203.097 7
                  21800199.395 4  21800206.477 7
  20230301.375 6                                   -871219.730 6   -669315.640 9
                  20230300.930 5  20230303.684 9
 17 10 27 16 57 35.0000000  0 12G05G12G13G15G18G20G21G25G29R04R05R19
  21581361.133 6  21581357.977 9                   1998301.421 6   1530384.670 9
                                
  24469118.117 5  24469116.141 8                   2705328.528 5   2092802.080 8
                                
  22053744.578 5                                   -790886.037 5   -490957.15246
                                  22053743.05546
  22107613.836 7  22107610.352 9                  -1617350.352 7  -1247773.189 9
                                
  24078144.359 2                                  -1282693.39012   -981910.09155
                                  24078141.66445
  20371234.891 7                                    -60117.209 7    -28742.52248
                                  20371229.98048
  24297042.648 5                                   -758047.985 5   -580305.79446
                                  24297038.44546
  23350922.133 6  23350922.367 9  23350922.934 9   2070880.229 6   1602495.562 9
   1536153.478 9                
  20327075.633 7  20327071.270 9                   -368613.749 7   -281447.505 9
                                
  19215923.781 8                                     20153.874 8     17580.482 9
                  19215923.691 7  19215928.004 9
  21797464.227 5                                  -1948557.312 5  -1499582.201 7
                  21797463.313 4  21797468.578 7
  20229137.523 6                                   -877447.013 6   -674159.089 9
                  20229136.023 6  20229140.969 9
 17 10 27 16 57 40.0000000  0 12G05G12G13G15G18G20G21G25G29R04R05R19
  21584344.422 6  21584339.973 9                   2013976.349 6   1542598.889 9
                                
  24472967.406 5  24472963.559 8                   2725554.984 5   2108562.878 8
                                
  22052791.469 5                                   -795889.664 5   -494856.10946
                                  22052790.91446
  22105436.258 6  22105433.797 9                  -1628791.153 6  -1256688.149 9
                                
  24076381.961 3                                                
                                  24076380.98845
  20371411.695 7                                    -59187.867 7    -28018.31048
                                  20371405.71148
  24295977.289 4                                   -763647.084 4   -584668.69046
                                  24295972.57046
  23354084.305 6  23354084.238 9  23354082.500 9   2087494.824 6   1615441.969 9
   1548560.454 9                
  20326827.313 7  20326823.527 9                   -369916.347 7   -282462.555 9
                                
  19216276.102 8                                     22036.170 8     19044.504 9
                  19216275.539 7  19216278.887 9
  21794729.797 6                                  -1963175.187 6  -1510951.686 8
                  21794728.883 5  21794733.605 8
  20227975.133 7                                   -883664.974 7   -678995.325 9
                  20227973.633 7  20227977.777 9
 17 10 27 16 57 45.0000000  0 12G05G12G13G15G18G20G21G25G29R04R05R19
  21587330.836 6  21587325.262 9                   2029659.510 6   1554819.530 9
                                
  24476814.555 5  24476812.957 8                   2745781.159 5   2124323.544 8
                                
  22051843.289 5                                   -800878.429 5   -498743.44846
                                  22051841.24646
  22103261.664 6  22103257.723 9                  -1640221.570 6  -1265594.940 9
                                
  24074623.953 1                                  -1301187.00711   -996321.11456
                                  24074623.14546
  20371590.984 7                                    -58245.613 7    -27284.11248
                                  20371585.74648
  24294910.867 4                                   -769245.114 4   -589030.78346
                                  24294908.12946
  23357247.750 6  23357247.699 9  23357248.059 9   2104117.216 6   1628394.470 9
   1560973.265 9                
  20326582.844 7  20326578.547 9                   -371203.455 7   -283465.460 9
                                
  19216632.008 8                                     23941.566 8     20526.516 9
                  19216631.094 7  19216634.836 9
  21791997.578 5                                  -1977780.112 5  -1522311.037 7
                  21791995.141 4  21792001.340 7
  20226815.031 5                                   -889872.549 5   -683823.412 9
                  20226813.648 4  20226817.832 9
 17 10 27 16 57 50.0000000  0 13G05G12G13G15G18G20G21G25G29R04R05R18
                                R19
  21590315.703 7  21590311.598 9                   2045351.083 7   1567046.712 9
                                
  24480663.914 5  24480661.398 8                   2766007.17815   2140084.06618
                                
  22050896.180 5                                   -805852.515 5   -502619.35346
                                  22050894.38746
  22101088.258 6  22101085.566 9                  -1651641.456 6  -1274493.576 9
                                
  24072866.195 3                                  -1310420.89013  -1003516.37955
                                  24072865.33645
  20371772.609 7                                    -57290.313 7    -26539.70748
                                  20371767.50048
  24293846.984 5                                   -774842.035 5   -593391.96946
                                  24293842.94146
  23360410.828 6  23360412.148 9  23360411.082 9   2120747.433 6   1641353.112 9
   1573391.961 9                
  20326340.180 7  20326336.172 9                   -372475.065 7   -284456.331 9
                                
  19216992.547 7                                     25869.804 7     22026.297 9
                  19216992.574 6  19216995.004 9
  21789266.914 5                                  -1992371.675 5  -1533660.024 7
                  21789266.824 4  21789271.453 7
  20550903.727 5                                     37314.51615      6811.68818
                  20550902.344 3  20550906.875 8
  20225655.438 6                                   -896070.125 6   -688643.778 9
                  20225655.465 5  20225659.109 9
 17 10 27 16 57 55.0000000  0 14G05G12G13G15G18G20G21G25G29R03R04R05
                                R18R19
  21593302.852 6  21593299.094 9                   2061051.371 6   1579280.688 9
                                
  24484512.000 5  24484509.719 8                   2786233.27715   2155844.45518
                                
  22049952.836 5                                   -810811.207 5   -506483.25946
                                  22049950.27746
  22098917.422 7  22098913.582 9                  -1663050.414 7  -1283383.668 9
                                
  24071112.352 4                                  -1319646.307 4  -1010704.95645
                                  24071109.60945
  20371957.141 6                                    -56321.535 6    -25784.82748
                                  20371951.81648
  24292781.992 5                                   -780437.387 5   -597752.06546
                                  24292778.06646
  23363577.383 6  23363578.102 9  23363578.313 9   2137385.872 6   1654318.133 9
   1585816.747 9                
  20326101.211 7  20326096.527 9                   -373730.792 7   -285434.813 9
                                
  21435134.523 1                                     70033.04411
                                
  19217356.492 8                                     27821.619 8     23544.318 9
                  19217356.754 7  19217359.918 9
  21786540.969 5                                  -2006949.716 5  -1544998.504 7
                  21786540.406 5  21786545.129 7
  20552766.797 4                                     47282.455 4     14564.495 8
                  20552765.766 3  20552772.563 8
  20224498.414 6                                   -902256.911 6   -693455.732 9
                  20224496.914 6  20224502.816 9
 17 10 27 16 58  0.0000000  0 14G05G12G13G15G18G20G21G25G29R03R04R05
                                R18R19
  21596290.570 5  21596288.430 9                   2076759.641 5   1591520.915 9
                                
  24488361.359 3  24488359.992 8                   2806459.030 3   2171604.991 8
                                
  22049012.422 5                                   -815755.462 5   -510335.90446
                                  22049009.94946
  22096747.719 7  22096744.789 9                  -1674449.032 7  -1292265.648 9
                                
  24069358.242 4                                  -1328863.896 4  -1017887.47245
                                  24069355.45745
  20372143.328 7                                    -55339.905 7    -25019.94848
                                  20372138.07048
  24291718.086 5                                   -786031.885 5   -602111.40746
                                  24291713.58646
  23366745.555 6  23366744.746 9  23366746.109 9   2154031.885 6   1667289.021 9
   1598247.204 9                
  20325865.727 7  20325861.590 9                   -374971.043 7   -286401.248 9
                                
  21438996.344 1                                                      2570.12718
                  21438998.363 1  21439000.125 8
  19217725.648 8                                     29796.226 8     25080.096 9
                  19217725.441 7  19217728.723 9
  21783814.523 4                                  -2021514.862 4  -1556326.931 7
                  21783813.141 3  21783820.641 7
  20554639.906 2                                     57265.095 2
                  20554639.582 1
  20223343.102 5                                   -908433.521 5   -698259.722 9
                  20223342.305 3  20223348.352 9
 17 10 27 16 58  5.0000000  0 12G05G12G13G15G18G20G21G25G29R04R05R19
  21599281.297 6  21599278.547 9                   2092475.770 6   1603767.260 9
                                
  24492210.523 2  24492209.227 8                   2826684.106 2   2187364.698 8
                                
  22048072.844 4                                   -820685.520 4   -514177.50846
                                  22048071.93846
  22094580.031 6  22094577.793 9                  -1685837.653 6  -1301139.932 9
                                
  24067605.563 5                                  -1338074.384 5  -1025064.42545
                                  24067602.73445
  20372332.961 7                                    -54345.938 7    -24245.39948
                                  20372327.45748
  24290652.922 4                                   -791625.805 4   -606470.28746
                                  24290648.37946
  23369914.078 5  23369915.098 9  23369914.738 9   2170685.121 5   1680265.596 9
   1610683.044 9                
  20325632.398 7  20325628.000 9                   -376196.453 7   -287356.111 9
                                
  19218097.484 8                                     31793.167 8     26633.305 9
                  19218097.395 7  19218101.906 9
  21781093.711 5                                  -2036067.337 5  -1567645.509 8
                  21781092.094 4  21781097.578 8
  20222190.727 7                                   -914600.513 7   -703056.262 9
                  20222189.461 6  20222195.516 9
 17 10 27 16 58 10.0000000  0 12G05G12G13G15G18G20G21G25G29R04R05R19
  21602274.109 5  21602271.145 9                   2108199.304 5   1616019.332 9
                                
  24496061.141 5  24496056.367 8                   2846908.21915   2203123.73918
                                
  22047137.828 4                                   -825601.251 4   -518007.90046
                                  22047136.59446
  22092415.898 7  22092411.801 9                  -1697216.419 7  -1310006.479 9
                                
  24065855.680 4                                  -1347277.326 4  -1032235.60045
                                  24065852.03945
  20372523.586 6                                    -53339.519 6    -23461.20148
                                  20372518.89148
  24289588.672 5                                   -797219.270 5   -610828.82546
                                  24289584.18046
  23373085.352 5  23373084.844 9  23373085.590 9   2187345.416 5   1693247.580 9
   1623124.158 9                
  20325401.813 7  20325396.867 9                   -377406.850 7   -288299.277 9
                                
  19218473.852 8                                     33812.484 8     28203.875 9
                  19218473.879 7  19218478.637 9
  21778373.070 6                                  -2050607.329 6  -1578954.383 8
                  21778371.922 5  21778377.613 8
  20221040.258 6                                   -920757.766 6   -707845.239 9
                  20221038.641 5  20221045.094 9
 17 10 27 16 58 15.0000000  0 13G05G12G13G15G18G20G21G25G29R04R05R18
                                R19
  21605267.938 5  21605264.090 8                   2123931.006 5   1628277.829 8
                                
  24499909.039 4  24499905.523 8                   2867131.721 4   2218882.251 8
                                
  22046205.086 4                                   -830502.485 4   -521827.04046
                                  22046203.91046
  22090251.891 7  22090248.281 8                  -1708584.803 7  -1318864.912 8
                                
  24064105.234 4                                  -1356472.650 4  -1039400.78445
                                  24064101.58645
  20372718.344 7                                    -52320.323 7    -22667.02748
                                  20372712.59848
  24288524.094 5                                   -802811.932 5   -615186.73046
                                  24288519.68046
  23376257.734 6  23376256.902 9  23376257.570 9   2204013.207 6   1706235.513 9
   1635570.869 9                
  20325173.523 7  20325170.281 9                   -378601.966 7   -289230.553 9
                                
  19218856.648 8                                     35854.768 8     29792.296 9
                  19218856.793 7  19218860.469 9
  21775654.734 5                                  -2065134.315 5  -1590253.143 8
                  21775654.055 4  21775659.945 8
  20560269.617 1                                     87300.66811     38231.63616
                                  20560269.793 6
  20219890.602 5                                   -926904.978 5   -712626.409 9
                  20219889.336 4  20219895.660 9
 17 10 27 16 58 20.0000000  0 12G05G12G13G15G18G20G21G25G29R04R05R19
  21608262.484 6  21608259.238 9                   2139670.722 6   1640542.545 9
                                
  24503756.609 4  24503754.391 8                   2887354.899 4   2234640.559 8
                                
  22045276.555 5                                   -835389.138 5   -525634.81446
                                  22045273.87146
  22088090.594 6  22088086.059 9                  -1719942.896 6  -1327715.460 9
                                
  24062353.563 1                                  -1365660.323 1  -1046559.94846
                                  24062354.02746
  20372914.961 7                                    -51288.401 7    -21862.92848
                                  20372909.02048
  24287460.289 5                                   -808403.662 5   -619543.87946
                                  24287455.64546
  23379430.898 6  23379430.809 9  23379429.727 9   2220688.538 6   1719229.256 9
   1648023.223 9                
  20324950.344 7  20324945.609 9                   -379781.755 7   -290149.877 9
                                
  19219242.320 8                                     37919.606 8     31398.287 9
                  19219241.875 7  19219245.578 9
  21772938.898 4                                  -2079648.308 4  -1601541.769 7
                  21772938.574 3  21772945.484 7
  20218744.086 6                                   -933042.143 6   -717399.784 9
                  20218741.414 4  20218748.684 9
 17 10 27 16 58 25.0000000  0 14G05G12G13G15G18G20G21G25G29R03R04R05
                                R18R19
  21611260.281 6  21611256.102 8                   2155418.338 6   1652813.409 8
                                
  24507602.703 4  24507602.273 8                   2907577.383 4   2250398.346 8
                                
  22044348.844 5                                   -840261.186 5   -529431.18846
                                  22044346.88746
  22085931.305 7  22085928.922 9                  -1731290.686 7  -1336557.891 9
                                
  24060608.289 3                                  -1374840.336 3  -1053713.11446
                                  24060606.76246
  20373114.070 7                                    -50243.777 7    -21048.94248
                                  20373108.00048
  24286395.773 5                                   -813994.620 5   -623900.48246
                                  24286391.77046
  23382604.164 6  23382605.176 9  23382604.094 9   2237371.197 6   1732228.739 9
   1660481.050 9                
  20324728.813 7  20324724.816 9                   -380946.233 7   -291057.272 9
                                
  21458324.711 1                                     55491.32311
                  21458322.859 1
  19219631.391 8                                     40007.290 8     33022.046 9
                  19219631.535 7  19219636.141 9
  21770227.398 5                                  -2094149.353 5  -1612820.369 7
                  21770226.719 4  21770232.227 7
  20564030.977 3                                     13281.29513
                                
  20217597.305 6                                   -939169.356 6   -722165.361 9
                  20217597.684 5  20217603.746 9
 17 10 27 16 58 30.0000000  0 14G05G12G13G15G18G20G21G25G29R03R04R05
                                R18R19
  21614258.273 6  21614254.008 8                   2171173.955 6   1665090.548 8
                                
  24511452.211 5  24511450.516 8                   2927799.401 5   2266155.770 8
                                
  22043424.719 5                                   -845118.551 5   -533216.16346
                                  22043422.53546
  22083773.320 7  22083771.047 9                  -1742628.072 7  -1345392.229 9
                                
  24058862.430 4                                  -1384012.470 4  -1060860.27145
                                  24058860.98845
  20373315.016 7                                    -49186.382 7    -20224.99648
                                  20373309.24648
  24285332.836 5                                   -819584.707 5   -628256.39546
                                  24285327.61346
  23385780.422 6  23385780.828 9  23385779.609 9   2254061.339 6   1745234.020 9
   1672944.471 9                
  20324509.922 7  20324505.391 9                   -382095.313 7   -291952.651 9
                                
  21462191.820 1                                     76215.087 1      9026.23217
                  21462189.852 1  21462197.359 7
  19220026.188 8                                     42117.749 8     34663.521 9
                  19220025.625 7  19220030.332 9
  21767516.094 5                                  -2108637.495 5  -1624088.912 7
                  21767516.941 5  21767521.270 7
  20565919.484 4                                     23352.387 4       940.22617
                  20565916.930 2  20565921.074 7
  20216454.414 6                                   -945286.347 6   -726923.030 9
                  20216455.145 5  20216460.164 9
 17 10 27 16 58 35.0000000  0 13G05G12G13G15G18G20G21G25G29R04R05R18
                                R19
  21617257.672 5  21617253.641 8                   2186937.597 5   1677373.869 8
                                
  24515300.758 5  24515297.699 8                   2948020.904 5   2281912.778 8
                                
  22042501.883 5                                   -849961.343 5   -536989.74746
                                  22042500.35246
  22081617.992 6  22081615.332 9                  -1753955.105 6  -1354218.471 9
                                
  24057118.500 3                                  -1393176.842 3  -1068001.29945
                                  24057117.30545
  20373518.453 7                                    -48116.276 7    -19391.14749
                                  20373513.43849
  24284269.000 4                                   -825173.940 4   -632611.59946
                                  24284264.08246
  23388958.227 6  23388958.234 9  23388957.523 9   2270758.924 6   1758245.100 9
   1685413.436 9                
  20324293.578 7  20324289.820 9                   -383229.103 7   -292836.130 9
                                
  19220423.609 8                                     44250.819 8     36322.583 9
                  19220423.871 7  19220428.316 9
  21764807.984 5                                  -2123112.469 5  -1635347.193 8
                  21764807.660 4  21764814.367 8
  20567809.313 3                                     33438.336 3      8784.815 7
                  20567808.988 2  20567810.766 7
  20215313.141 6                                   -951393.294 6   -731672.870 9
                  20215311.992 5  20215318.020 9
 17 10 27 16 58 40.0000000  0 14G05G12G13G15G18G20G21G25G29R03R04R05
                                R18R19
  21620258.094 5  21620255.730 8                   2202708.765 5   1689663.174 8
                                
  24519146.188 4  24519146.051 8                   2968241.593 4   2297669.177 8
                                
  22041584.125 5                                   -854789.630 5   -540752.12246
                                  22041582.09846
  22079466.109 7  22079462.367 9                  -1765271.990 7  -1363036.830 9
                                
  24055377.414 4                                  -1402333.863 4  -1075136.62646
                                  24055375.08246
  20373724.773 7                                    -47033.690 7    -18547.57548
                                  20373719.15248
  24283206.523 5                                   -830762.602 5   -636966.49746
                                  24283201.24646
  23392136.164 5  23392136.789 9  23392134.883 9   2287463.632 5   1771261.774 9
   1697887.720 9                
  20324081.508 7  20324077.371 9                   -384347.864 7   -293707.854 9
                                
  21469938.266 1                                    117697.21911     41290.10018
                  21469937.117 1  21469945.355 8
  19220826.211 7                                     46406.213 7     37999.032 9
                  19220826.238 7  19220831.383 9
  21762103.633 5                                  -2137574.760 5  -1646595.673 8
                  21762102.250 4  21762108.852 8
  20569701.406 1                                     43538.775 1     16640.701 7
                  20569700.609 1  20569705.156 7
  20214173.203 6                                   -957490.309 6   -736414.990 9
                  20214172.172 5  20214178.070 9
 17 10 27 16 58 45.0000000  0 12G05G12G13G15G18G20G21G25G29R04R05R19
  21623262.789 5  21623257.133 8                   2218487.649 5   1701958.341 8
                                
  24522994.586 5  24522994.031 8                   2988461.327 5   2313424.811 8
                                
  22040667.172 5                                   -859603.715 5   -544503.28746
                                  22040666.12146
  22077312.914 6  22077310.867 9                  -1776578.964 6  -1371847.430 9
                                
  24053636.102 5                                  -1411483.552 5  -1082266.25546
                                  24053633.59446
  20373933.211 7                                    -45938.864 7    -17694.48148
                                  20373927.85948
  24282142.711 5                                   -836350.865 5   -641320.91346
                                  24282137.45346
  23395317.500 5  23395316.883 9  23395316.238 9   2304175.311 5   1784283.778 9
   1710367.173 9                
  20323871.477 7  20323866.910 9                   -385451.726 7   -294568.050 9
                                
  19221233.492 7                                     48584.039 7     39692.880 9
                  19221234.457 7  19221238.301 9
  21759401.867 6                                  -2152024.612 6  -1657834.405 8
                  21759399.664 5  21759406.098 8
  20213035.641 6                                   -963577.841 6   -741149.714 9
                  20213034.961 6  20213040.430 9
 17 10 27 16 58 50.0000000  0 13G05G12G13G15G18G20G21G25G29R04R05R18
                                R19
  21626264.992 6  21626261.371 8                   2234274.139 6   1714259.557 8
                                
  24526843.430 6  24526840.563 8                   3008680.191 6   2329179.803 8
                                
  22039753.695 5                                   -864403.332 5   -548243.34546
                                  22039752.75446
  22075162.961 6  22075160.793 9                  -1787875.656 6  -1380650.046 9
                                
  24051896.734 5                                  -1420625.856 5  -1089390.09646
                                  24051893.58246
  20374143.133 7                                    -44831.483 7    -16831.56148
                                  20374138.30148
  24281078.656 4                                   -841938.556 4   -645674.96246
                                  24281074.22746
  23398497.539 5  23398499.051 9  23398497.938 9   2320894.130 5   1797311.470 9
   1722852.010 9                
  20323663.891 7  20323659.594 9                   -386540.432 7   -295416.362 9
                                
  19221645.008 8                                     50784.487 8     41404.416 9
                  19221645.152 7  19221648.145 9
  21756700.070 6                                  -2166461.568 6  -1669063.229 8
                  21756700.098 5  21756706.082 8
  20573491.031 3                                     63783.45213
                                
  20211898.305 6                                   -969655.261 6   -745876.567 9
                  20211897.273 5  20211903.980 9
 17 10 27 16 58 55.0000000  0 12G05G12G13G15G18G20G21G25G29R04R05R19
  21629271.539 6  21629267.363 8                   2250068.963 6   1726567.132 8
                                
  24530690.422 5  24530687.617 8                   3028898.942 5   2344934.577 8
                                
  22038844.422 5                                   -869187.920 5   -551971.53246
                                  22038842.85246
  22073016.586 7  22073013.160 9                  -1799161.604 7  -1389444.194 9
                                
  24050156.938 4                                  -1429759.893 4  -1096507.51546
                                  24050155.41046
  20374356.898 7                                    -43710.967 7    -15958.45548
                                  20374351.82848
  24280016.055 5                                   -847524.903 5   -650027.96446
                                  24280011.11346
  23401682.258 6  23401681.910 9  23401680.738 9   2337620.687 6   1810345.162 9
   1735342.607 9                
  20323460.086 7  20323455.340 9                   -387613.336 7   -296252.374 9
                                
  19222059.742 8                                     53008.023 8     43133.773 9
                  19222059.887 7  19222063.188 9
  21754002.461 6                                  -2180884.941 6  -1680281.404 8
                  21754001.430 5  21754006.609 8
  20210765.328 5                                   -975722.197 5   -750595.232 9
                  20210764.297 4  20210770.273 9
 17 10 27 16 59  0.0000000  0 13G05G12G13G15G18G20G21G25G29R04R05R18
                                R19
  21632278.563 6  21632274.234 8                   2265871.288 6   1738880.673 8
                                
  24534537.789 5  24534535.652 8                   3049116.605 5   2360688.621 8
                                
  22037937.336 5                                   -873958.195 5   -555688.61346
                                  22037935.16446
  22070870.094 6  22070866.527 9                  -1810437.526 6  -1398230.578 9
                                
  24048420.578 5                                  -1438886.623 5  -1103619.27146
                                  24048418.63346
  20374572.570 7                                    -42578.142 7    -15075.73048
                                  20374567.78148
  24278952.727 5                                   -853110.893 5   -654380.62846
                                  24278947.96946
  23404866.203 6  23404866.094 9  23404865.703 9   2354354.222 6   1823384.275 9
   1747838.433 9                
  20323258.758 7  20323254.059 9                   -388671.330 7   -297076.830 9
                                
  19222478.797 8                                     55253.754 8     44880.444 9
                  19222479.293 7  19222483.418 9
  21751306.188 5                                  -2195295.715 5  -1691489.753 8
                  21751305.273 4  21751311.961 8
  20577298.477 1                                     84085.49611
                                
  20209632.789 5                                   -981779.242 5   -755306.368 9
                  20209630.703 4  20209636.836 9
 17 10 27 16 59  5.0000000  0 13G05G12G13G15G18G20G21G25G29R04R05R18
                                R19
  21635287.195 6  21635282.758 8                   2281681.250 6   1751200.100 8
                                
  24538384.805 5  24538382.637 8                   3069333.429 5   2376441.950 8
                                
  22037031.188 5                                   -878714.179 5   -559394.61646
                                  22037029.96546
  22068726.672 7  22068723.152 9                  -1821703.256 7  -1407009.178 9
                                
  24046685.859 5                                  -1448006.007 5  -1110725.31845
                                  24046682.76645
  20374790.539 7                                    -41432.920 7    -14183.35148
                                  20374785.46948
  24277889.664 5                                   -858696.352 5   -658732.93246
                                  24277885.26246
  23408051.836 6  23408051.734 9  23408051.520 9   2371094.823 6   1836428.876 9
   1760339.517 9                
  20323060.414 7  20323056.039 9                   -389714.216 7   -297889.462 9
                                
  19222902.633 8                                     57521.979 8     46644.639 9
                  19222902.660 7  19222907.047 9
  21748612.875 5                                  -2209693.785 5  -1702688.228 8
                  21748612.313 4  21748617.988 8
  20579205.430 1                                     94259.027 1
                                
  20208501.766 6                                   -987826.682 6   -760009.924 9
                  20208501.676 5  20208507.020 9
 17 10 27 16 59 10.0000000  0 12G05G12G13G15G18G20G21G25G29R04R05R19
  21638296.688 6  21638293.016 8                   2297498.477 6   1763525.248 8
                                
  24542232.000 6  24542228.715 8                   3089548.946 6   2392194.298 8
                                
  22036129.344 6                                   -883455.937 6   -563089.40046
                                  22036126.96946
  22066584.648 7  22066580.156 8                  -1832959.141 7  -1415780.047 8
                                
  24044951.852 4                                  -1457118.178 4  -1117825.67546
                                  24044948.86746
  20375011.563 7                                    -40275.486 7    -13281.46349
                                  20375006.09849
  24276826.664 5                                   -864281.514 5   -663084.97746
                                  24276822.24646
  23411238.586 6  23411238.652 9  23411238.883 9   2387842.111 6   1849478.662 9
   1772845.581 9                
  20322864.594 7  20322859.867 9                   -390742.297 7   -298690.598 9
                                
  19223329.891 7                                     59812.398 7     48426.060 9
                  19223329.445 7  19223334.387 9
  21745921.391 4                                  -2224079.323 4  -1713876.944 8
                  21745919.422 3  21745927.512 8
  20207372.820 6                                   -993864.301 6   -764705.874 9
                  20207372.848 5  20207377.738 9
 17 10 27 16 59 15.0000000  0 12G05G12G13G15G18G20G21G25G29R04R05R19
  21641308.164 6  21641304.758 8                   2313322.772 6   1775855.918 8
                                
  24546077.797 6  24546076.781 8                   3109762.993 6   2407945.509 8
                                
  22035229.195 6                                   -888183.818 6   -566773.44546
                                  22035227.15646
  22064444.023 7  22064442.398 9                  -1844205.406 7  -1424543.313 9
                                
  24043220.414 5                                  -1466223.479 5  -1124920.62246
                                  24043216.25446
  20375233.609 7                                    -39106.206 7    -12370.32948
                                  20375227.94548
  24275764.219 6                                   -869866.645 6   -667437.09546
                                  24275759.24646
  23414426.180 6  23414427.547 9  23414426.672 9   2404595.979 6   1862533.642 9
   1785356.579 9                
  20322671.641 7  20322667.230 9                   -391755.857 7   -299480.371 9
                                
  19223761.695 7                                     62124.686 7     50224.526 9
                  19223762.191 7  19223766.625 9
  21743231.000 4                                  -2238452.627 4  -1725056.278 8
                  21743229.734 2  21743237.918 8
  20206246.844 7                                   -999892.614 7   -769394.544 9
                  20206245.344 6  20206251.211 9
 17 10 27 16 59 20.0000000  0 12G05G12G13G15G18G20G21G25G29R04R05R19
  21644321.430 6  21644317.074 8                   2329154.201 6   1788191.976 8
                                
  24549925.313 6  24549923.734 8                   3129975.746 6   2423695.710 8
                                
  22034331.250 5                                   -892897.655 5   -570446.61846
                                  22034330.00046
  22062305.984 7  22062302.051 8                  -1855441.912 7  -1433298.957 8
                                
  24041489.086 5                                  -1475321.640 5  -1132010.21546
                                  24041484.69146
  20375458.047 7                                    -37925.005 7    -11449.91348
                                  20375453.12548
  24274701.609 5                                   -875451.772 5   -671789.04646
                                  24274696.92246
  23417615.727 5  23417616.188 9  23417615.254 9   2421356.249 5   1875593.594 9
   1797872.370 9                
  20322481.492 7  20322477.000 9                   -392754.710 7   -300258.701 9
                                
  19224198.234 8                                     64458.816 8     52039.969 9
                  19224197.555 7  19224202.207 9
  21740545.336 4                                  -2252813.553 4  -1736225.852 8
                  21740544.305 3  21740552.637 8
  20205121.063 6                                  -1005911.296 6   -774075.750 9
                  20205119.914 5  20205125.996 9
 17 10 27 16 59 25.0000000  0 12G05G12G13G15G18G20G21G25G29R04R05R19
  21647335.008 6  21647330.438 8                   2344992.990 6   1800533.965 8
                                
  24553770.414 5  24553769.352 8                   3150187.287 5   2439444.861 8
                                
  22033437.563 5                                   -897597.318 5   -574108.61246
                                  22033435.83246
  22060170.414 7  22060167.816 9                  -1866668.340 7  -1442046.931 9
                                
  24039757.219 4                                  -1484412.606 4  -1139094.05046
                                  24039754.75846
  20375685.344 7                                    -36731.518 7    -10519.93049
                                  20375680.14549
  24273639.078 5                                   -881036.438 5   -676140.76746
                                  24273634.02046
  23420806.430 5  23420806.754 9  23420805.965 9   2438123.396 5   1888658.857 9
   1810393.262 9                
  20322294.789 7  20322290.055 9                   -393738.661 7   -301025.423 9
                                
  19224637.797 8                                     66815.121 8     53872.632 9
                  19224637.941 7  19224642.578 9
  21737861.914 5                                  -2267161.695 5  -1747385.472 7
                  21737859.945 4  21737867.422 7
  20203998.453 6                                  -1011920.341 6   -778749.450 9
                  20203997.070 5  20204002.250 9
 17 10 27 16 59 30.0000000  0 13G05G12G13G15G18G20G21G25G29R04R05R18
                                R19
  21650351.266 6  21650346.461 8                   2360839.214 6   1812881.651 8
                                
  24557616.961 6  24557615.590 9                   3170397.750 6   2455193.322 9
                                
  22032545.625 5                                   -902282.593 5   -577759.51046
                                  22032544.18046
  22058036.055 7  22058033.520 9                  -1877884.687 7  -1450786.903 9
                                
  24038030.047 4                                  -1493496.184 4  -1146172.15545
                                  24038025.86345
  20375914.719 7                                    -35525.797 7     -9580.40149
                                  20375909.34049
  24272576.336 5                                   -886620.755 5   -680492.16646
                                  24272571.33646
  23423998.719 5  23423998.582 9  23423997.703 9   2454897.328 5   1901729.445 9
   1822919.250 9                
  20322109.852 7  20322105.156 9                   -394707.645 7   -301780.470 9
                                
  19225082.133 8                                     69193.836 8     55722.739 9
                  19225082.395 7  19225086.656 9
  21735179.078 6                                  -2281497.249 6  -1758535.385 7
                  21735179.223 5  21735186.172 7
  20588770.055 4                                     16289.13314
                  20588769.609 2
  20202876.602 6                                  -1017919.494 6   -783415.464 9
                  20202876.156 5  20202879.871 9
 17 10 27 16 59 35.0000000  0 13G05G12G13G15G18G20G21G25G29R04R05R18
                                R19
  21653367.477 6  21653363.246 8                   2376692.307 6   1825234.724 8
                                
  24561461.883 5  24561461.832 9                   3190606.577 5   2470940.400 9
                                
  22031657.047 5                                   -906954.046 5   -581399.59146
                                  22031655.14846
  22055903.164 6  22055901.047 9                  -1889091.457 6  -1459519.467 9
                                
  24036302.086 4                                  -1502572.926 4  -1153244.91446
                                  24036298.99246
  20376146.156 7                                    -34308.370 7     -8631.76249
                                  20376140.97749
  24271513.211 5                                   -892205.217 5   -684843.69746
                                  24271508.68846
  23427191.961 5  23427191.578 9  23427190.840 9   2471677.563 5   1914804.930 9
   1835449.913 9                
  20321928.039 7  20321923.762 9                   -395662.144 7   -302524.236 9
                                
  19225530.094 7                                     71594.108 7     57589.627 9
                  19225530.824 7  19225535.008 9
  21732500.656 5                                  -2295820.583 5  -1769675.732 8
                  21732500.332 5  21732507.035 8
  20590693.094 4                                     26548.144 4      4149.94417
                  20590691.594 2  20590697.563 7
  20201758.055 6                                  -1023909.377 6   -788074.257 9
                  20201756.906 5  20201760.520 9
 17 10 27 16 59 40.0000000  0 13G05G12G13G15G18G20G21G25G29R04R05R18
                                R19
  21656386.273 6  21656381.082 8                   2392552.605 6   1837593.401 8
                                
  24565307.352 5  24565306.816 9                   3210814.231 5   2486686.642 9
                                
  22030770.391 5                                   -911611.371 5   -585028.65746
                                  22030768.39846
  22053772.477 6  22053770.652 9                  -1900288.269 6  -1468244.230 9
                                
  24034576.422 4                                  -1511642.601 4  -1160312.17646
                                  24034573.53946
  20376380.109 7                                    -33078.823 7     -7673.66849
                                  20376374.67249
  24270450.594 4                                   -897789.425 4   -689195.01246
                                  24270445.69546
  23430386.422 6  23430386.098 9  23430385.391 9   2488464.380 6   1927885.568 9
   1847985.534 9                
  20321749.492 7  20321745.422 9                   -396601.809 7   -303256.438 9
                                
  19225983.188 8                                     74016.479 8     59473.687 9
                  19225983.098 7  19225987.137 9
  21729823.797 6                                  -2310131.339 6  -1780806.331 7
                  21729823.234 5  21729829.949 7
  20592617.250 3                                     36821.273 3     12140.193 7
                  20592616.336 1  20592622.133 7
  20200640.344 6                                  -1029889.599 6   -792725.563 9
                  20200638.141 6  20200642.016 9
 17 10 27 16 59 45.0000000  0 12G05G12G13G15G18G20G21G25G29R04R05R19
  21659404.523 6  21659400.582 9                   2408419.825 6   1849957.465 9
                                
  24569152.914 5  24569152.566 9                   3231020.246 5   2502431.570 9
                                
  22029886.563 5                                   -916254.794 5   -588646.91346
                                  22029884.92246
  22051644.008 7  22051641.219 9                  -1911475.450 7  -1476961.514 9
                                
  24032852.219 5                                  -1520705.410 5  -1167374.13845
                                  24032847.69145
  20376616.750 7                                    -31837.540 7     -6706.43849
                                  20376611.28949
  24269387.906 5                                   -903373.689 5   -693546.39047
                                  24269383.03947
  23433582.172 6  23433582.281 9  23433581.391 9   2505257.496 6   1940971.109 9
   1860525.842 9                
  20321573.367 7  20321569.367 9                   -397526.931 7   -303977.324 9
                                
  19226438.922 8                                     76460.676 8     61374.748 9
                  19226438.949 7  19226443.590 9
  21727149.984 6                                  -2324429.881 6  -1791927.394 7
                  21727148.836 5  21727155.566 7
  20199522.688 6                                  -1035860.572 6   -797369.649 9
                  20199522.008 5  20199526.086 9
 17 10 27 16 59 50.0000000  0 13G05G12G13G15G18G20G21G25G29R04R05R18
                                R19
  21662426.484 6  21662421.414 8                   2424294.428 6   1862327.251 8
                                
  24572998.195 5  24572997.559 9                   3251225.114 5   2518175.578 9
                                
  22029005.906 5                                   -920883.838 5   -592253.92546
                                  22029004.14146
  22049516.758 7  22049514.512 9                  -1922652.450 7  -1485670.863 9
                                
  24031127.703 4                                  -1529760.972 4  -1174430.39746
                                  24031124.76246
  20376854.867 7                                    -30584.023 7     -5729.68149
                                  20376850.09849
  24268325.828 5                                   -908957.725 5   -697897.53946
                                  24268321.07446
  23436778.898 6  23436778.715 9  23436777.910 9   2522057.396 6   1954061.959 9
   1873071.204 9                
  20321400.047 7  20321395.730 9                   -398437.002 7   -304686.468 9
                                
  19226898.773 8                                     78927.078 8     63293.053 9
                  19226899.504 7  19226904.223 9
  21724476.766 6                                  -2338715.647 6  -1803038.571 7
                  21724476.203 5  21724482.863 7
  20596474.422 1                                     57410.17211     28153.84017
                  20596474.918 1  20596478.891 7
  20198409.813 6                                  -1041821.563 6   -802005.979 9
                  20198408.781 5  20198412.148 9
 17 10 27 16 59 55.0000000  0 13G05G12G13G15G18G20G21G25G29R04R05R18
                                R19
  21665448.781 6  21665443.586 8                   2440175.749 6   1874702.316 8
                                
  24576843.008 6  24576841.457 8                   3271428.067 6   2533918.129 8
                                
  22028127.219 5                                   -925499.107 5   -595850.22846
                                  22028125.28946
  22047392.086 7  22047388.816 8                  -1933819.920 7  -1494372.796 8
                                
  24029406.016 5                                  -1538809.795 5  -1181481.43845
                                  24029402.87945
  20377096.070 7                                    -29318.892 7     -4743.86249
                                  20377090.88749
  24267262.594 5                                   -914541.971 5   -702248.89846
                                  24267258.33246
  23439976.938 6  23439977.125 9  23439976.379 9   2538863.417 6   1967157.536 9
   1885621.157 9                
  20321229.867 7  20321225.613 9                   -399332.679 7   -305384.413 9
                                
  19227363.836 8                                     81414.923 8     65228.058 9
                  19227364.332 7  19227368.590 9
  21721806.219 5                                  -2352989.301 5  -1814140.271 7
                  21721805.539 5  21721812.250 7
  20598405.734 1                                     67725.592 1     36176.953 7
                  20598405.289 1  20598412.914 7
  20197297.594 6                                  -1047773.263 6   -806635.082 9
                  20197296.914 5  20197299.027 9
 17 10 27 17  0  0.0000000  0 13G05G12G13G15G18G20G21G25G29R04R05R18
                                R19
  21668472.250 6  21668467.047 8                   2456063.960 6   1887082.751 8
                                
  24580686.250 5  24580685.402 8                   3291629.453 5   2549659.430 8
                                
  22027252.633 4                                   -930100.411 4   -599435.67746
                                  22027250.14846
  22045268.664 7  22045266.031 9                  -1944977.687 7  -1503067.146 9
                                
  24027685.852 5                                  -1547851.781 5  -1188527.11145
                                  24027682.75445
  20377338.680 7                                    -28041.988 7     -3748.86549
                                  20377333.54749
  24266200.055 5                                   -920126.208 5   -706600.24946
                                  24266195.90246
  23443176.547 6  23443175.770 9  23443175.328 9   2555675.712 6   1980258.016 9
   1898175.781 9                
  20321062.305 7  20321057.852 9                   -400213.737 7   -306070.943 9
                                
  19227832.359 7                                     83924.709 7     67180.096 9
                  19227832.152 7  19227837.590 9
  21719138.016 6                                  -2367250.591 6  -1825232.373 8
                  21719137.570 5  21719143.938 8
  20600340.148 1                                     78054.950 1     44210.893 7
                  20600340.176 1  20600349.484 7
  20196186.914 6                                  -1053715.619 6   -811256.906 9
                  20196185.883 5  20196187.930 9
 17 10 27 17  0  5.0000000  0 13G05G12G13G15G18G20G21G25G29R04R05R18
                                R19
  21671496.594 6  21671491.742 8                   2471959.142 6   1899468.601 8
                                
  24584531.172 6  24584529.188 8                   3311829.217 6   2565399.494 8
                                
  22026380.039 4                                   -934687.722 4   -603010.21246
                                  22026377.02346
  22043147.758 7  22043144.023 8                  -1956125.622 7  -1511753.829 8
                                
  24025966.414 5                                  -1556886.873 5  -1195567.46145
                                  24025962.60245
  20377583.844 7                                    -26753.229 7     -2744.63749
                                  20377578.66449
  24265138.055 5                                   -925710.426 5   -710951.58146
                                  24265133.39546
  23446376.914 6  23446377.426 9  23446376.484 9   2572494.395 6   1993363.479 9
   1910735.169 9                
  20320897.703 7  20320892.707 9                   -401080.156 7   -306746.083 9
                                
  19228305.641 7                                     86456.251 7     69149.086 9
                  19228305.316 7  19228310.320 9
  21716472.742 5                                  -2381499.418 5  -1836314.813 8
                  21716472.887 5  21716478.168 8
  20602279.234 1                                     88398.398 1     52255.792 7
                  20602278.910 1  20602288.848 7
  20195078.047 6                                  -1059648.424 6   -815871.310 9
                  20195076.664 5  20195079.012 9
 17 10 27 17  0 10.0000000  0 12G05G12G13G15G18G20G21G25G29R04R05R19
  21674522.641 6  21674518.039 9                   2487861.537 6   1911860.046 9
                                
  24588374.336 6  24588373.129 9                   3332027.665 6   2581138.535 9
                                
  22025510.250 5                                   -939260.721 5   -606573.66046
                                  22025506.83246
  22041028.258 7  22041024.301 8                  -1967263.484 7  -1520432.496 8
                                
  24024248.195 5                                  -1565914.688 5  -1202602.10345
                                  24024244.72345
  20377831.211 7                                    -25452.306 7     -1730.91748
                                  20377826.53148
  24264074.992 5                                   -931294.315 5   -715302.68846
                                  24264070.31646
  23449579.664 6  23449578.801 9  23449577.773 9   2589319.679 6   2006474.092 9
   1923299.501 9                
  20320735.398 6  20320731.211 9                   -401931.644 6   -307409.547 9
                                
  19228782.461 8                                     89009.952 8     71135.338 9
                  19228782.016 7  19228786.668 9
  21713810.258 5                                  -2395735.477 5  -1847387.376 8
                  21713809.695 5  21713814.980 8
  20193971.141 6                                  -1065571.297 6   -820477.940 9
                  20193970.344 5  20193971.039 9
 17 10 27 17  0 15.0000000  0 13G05G12G13G15G18G20G21G25G29R03R04R05
                                R19
  21677550.273 6  21677545.660 8                   2503771.103 6   1924257.159 8
                                
  24592218.836 6  24592216.027 8                   3352224.742 6   2596876.558 8
                                
  22024642.328 5                                   -943819.498 5   -610125.87646
                                  22024639.59846
  22038910.367 7  22038906.293 8                  -1978391.264 7  -1529103.511 8
                                
  24022531.625 5                                  -1574935.367 5  -1209631.16846
                                  24022527.95346
  20378081.484 7                                    -24139.349 7      -707.84649
                                  20378076.23049
  24263012.148 5                                   -936878.036 5   -719653.60846
                                  24263007.54746
  23452782.289 6  23452782.051 9  23452781.090 9   2606151.415 6   2019589.729 9
   1935868.669 9                
  20320576.281 7  20320571.617 9                   -402768.245 7   -308061.478 9
                                
  21543974.742 1                                    120535.06711
                  21543973.359 1
  19229263.156 8                                     91585.744 8     73138.719 9
                  19229262.832 7  19229268.168 9
  21711150.789 6                                  -2409958.978 6  -1858450.101 8
                  21711149.055 5  21711153.727 8
  20192866.508 6                                  -1071484.454 6   -825077.106 9
                  20192865.125 6  20192865.633 9
 17 10 27 17  0 20.0000000  0 14G05G12G13G15G18G20G21G25G29R03R04R05
                                R18R19
  21680579.602 6  21680574.563 8                   2519687.848 6   1936659.800 8
                                
  24596061.508 6  24596058.863 8                   3372420.418 6   2612613.415 8
                                
  22023777.492 5                                   -948363.977 5   -613667.03346
                                  22023774.17646
  22036794.313 7  22036790.082 8                  -1989509.032 7  -1537766.764 8
                                
  24020816.336 5                                  -1583948.828 5  -1216654.64845
                                  24020812.62145
  20378333.891 7                                    -22814.321 7       324.63649
                                  20378328.37549
  24261950.109 5                                   -942461.551 5   -724004.33846
                                  24261944.59846
  23455986.141 6  23455986.313 9  23455984.789 9   2622989.663 6   2032710.441 9
   1948442.653 9                
  20320419.734 7  20320415.293 9                   -403589.945 7   -308701.777 9
                                
  21547898.922 1                                    141496.889 1     15641.32817
                                  21547886.094 7
  19229748.156 7                                     94183.483 7     75159.184 9
                  19229748.184 7  19229753.609 9
  21708490.688 5                                  -2424169.874 5  -1869502.984 8
                  21708490.242 5  21708496.848 8
  20608111.031 2                                    119516.92812
                  20608111.293 1
  20191762.117 6                                  -1077387.844 6   -829668.622 9
                  20191761.203 6  20191762.160 9
 17 10 27 17  0 25.0000000  0 14G05G12G13G15G18G20G21G25G29R03R04R05
                                R18R19
  21683609.664 6  21683604.059 8                   2535611.497 6   1949067.831 8
                                
  24599905.281 6  24599901.852 8                   3392614.458 6   2628348.984 8
                                
  22022913.969 5                                   -952894.350 5   -617197.16746
                                  22022912.51646
  22034679.875 7  22034676.953 9                  -2000616.883 7  -1546422.298 9
                                
  24019102.883 5                                  -1592955.339 5  -1223672.74746
                                  24019099.26646
  20378588.344 7                                    -21477.500 7      1366.31149
                                  20378582.92649
  24260888.203 5                                   -948044.946 5   -728355.04846
                                  24260881.98846
  23459191.383 6  23459191.336 9  23459189.805 9   2639834.245 6   2045836.077 9
   1961021.391 9                
  20320265.961 7  20320261.953 9                   -404396.967 7   -309330.618 9
                                
  21551815.914 1                                    162468.851 1
                                
  19230236.836 8                                     96803.129 8     77196.695 9
                  19230237.098 7  19230242.180 9
  21705834.789 6                                  -2438368.208 6  -1880546.093 8
                  21705834.934 5  21705840.137 8
  20610056.813 3                                    129917.560 3     64853.81617
                  20610057.777 2  20610062.688 7
  20190659.500 6                                  -1083281.652 6   -834252.678 9
                  20190658.703 6  20190661.148 9
 17 10 27 17  0 30.0000000  0 12G05G12G13G15G18G20G21G25G29R04R05R19
  21686640.836 6  21686636.203 9                   2551541.689 6   1961480.971 9
                                
  24603746.406 5  24603744.219 8                   3412806.417 5   2644083.039 8
                                
  22022056.023 5                                   -957411.002 5   -620716.71146
                                  22022052.86346
  22032568.164 6  22032564.652 8                  -2011715.261 6  -1555070.246 8
                                
  24017390.391 5                                  -1601955.167 5  -1230685.58946
                                  24017386.25046
  20378844.180 7                                    -20129.183 7      2416.95549
                                  20378839.17649
  24259824.953 5                                   -953628.721 5   -732706.04146
                                  24259819.34046
  23462397.656 6  23462398.219 9  23462396.008 9   2656684.757 6   2058966.330 9
   1973604.559 9                
  20320114.969 7  20320111.266 9                   -405189.610 7   -309948.262 9
                                
  19230730.883 8                                     99444.218 8     79250.881 9
                  19230730.559 7  19230735.109 9
  21703180.539 5                                  -2452554.472 5  -1891579.894 8
                  21703178.805 3  21703185.660 8
  20189559.750 6                                  -1089166.223 6   -838829.554 9
                  20189559.188 5  20189561.207 9
 17 10 27 17  0 35.0000000  0 13G05G12G13G15G18G20G21G25G29R04R05R18
                                R19
  21389881.914 6  21389876.816 8                    992061.692 6    746301.752 8
                                
  24307797.375 6  24307795.430 8                   1857580.451 6   1432218.595 8
                                
  21721405.836 5                                  -2537334.911 5  -1851826.14646
                                  21721403.87146
  21730665.781 7  21730662.934 9                  -3598226.239 7  -2791312.729 9
                                
  23715885.914 4                                  -3186370.202 4  -2465294.72045
                                  23715881.58245
  20079310.969 7                                  -1594189.080 7  -1224123.22949
                                  20079305.57049
  23958968.992 5                                  -2534633.908 5  -1964658.13246
                                  23958964.40646
  23165813.742 6  23165813.637 9  23165813.066 9   1098124.522 6    844503.794 9
    809744.635 9                
  20020174.711 7  20020170.594 9                  -1981388.042 7  -1538154.833 9
                                
  18931434.836 8                                  -1503267.590 8  -1167302.759 9
                  18931435.801 7  18931441.305 9
  21400737.000 6                                  -4069293.917 6  -3149043.870 8
                  21400736.320 5  21400741.156 8
  20314170.227 1                                  -1449550.50211
                  20314169.547 1
  19888667.930 6                                  -2698730.011 6  -2090712.523 9
                  19888667.605 6  19888670.359 9
 17 10 27 17  0 40.0000000  0 13G05G12G13G15G18G20G21G25G29R04R05R18
                                R19
  21392915.867 6  21392911.543 8                   1008005.254 6    758725.295 8
                                
  24311638.148 5  24311636.813 8                   1877768.627 5   1447949.592 8
                                
  21720552.117 5                                  -2541823.942 5  -1855324.11346
                                  21720549.54346
  21728557.625 7  21728554.180 9                  -3609305.261 7  -2799945.684 9
                                
  23714174.891 5                                  -3195356.658 5  -2472297.11445
                                  23714171.22345
  20079571.898 7                                  -1592817.516 7  -1223054.47149
                                  20079566.73449
  23957905.859 5                                  -2540218.105 5  -1969009.42846
                                  23957901.89546
  23169022.711 6  23169022.719 9  23169021.973 9   1114987.065 6    857643.410 9
    822336.777 9                
  20020028.984 7  20020025.527 9                  -1982151.745 7  -1538749.907 9
                                
  18931936.547 8                                  -1500583.314 8  -1165214.989 9
                  18931937.277 7  18931942.176 9
  21398087.422 6                                  -4083455.541 6  -3160058.503 8
                  21398086.273 6  21398091.301 8
  20316128.813 1                                  -1439108.509 1
                  20316123.910 1
  19887571.156 6                                  -2704595.774 6  -2095274.795 9
                  19887569.773 5  19887573.355 9
 17 10 27 17  0 45.0000000  0 13G05G12G13G15G18G20G21G25G29R04R05R18
                                R19
  21395951.031 6  21395946.496 9                   1023955.220 6    771153.791 9
                                
  24315479.836 6  24315478.324 8                   1897954.629 6   1463678.930 8
                                
  21719699.539 5                                  -2546299.242 5  -1858811.34146
                                  21719697.77346
  21726450.438 6  21726447.191 9                  -3620374.737 6  -2808571.213 9
                                
  23712466.555 5                                  -3204336.577 5  -2479294.45045
                                  23712462.73045
  20079834.984 7                                  -1591434.527 7  -1221976.81549
                                  20079830.19949
  23956843.055 4                                  -2545802.768 4  -1973361.06546
                                  23956839.11746
  23172233.141 6  23172232.918 9  23172232.891 9   1131855.367 6    870787.528 9
    834933.248 9                
  20019886.266 7  20019882.262 9                  -1982901.193 7  -1539333.930 9
                                
  18932442.047 8                                  -1497877.767 8  -1163110.643 9
                  18932442.777 7  18932447.230 9
  21395440.234 6                                  -4097605.099 6  -3171063.706 8
                  21395439.789 5  21395444.738 8
  20318090.648 1                                                
                  20318093.844 1
  19886476.492 6                                  -2710452.315 6  -2099829.854 9
                  19886474.758 6  19886478.883 9
 17 10 27 17  0 50.0000000  0 12G05G12G13G15G18G20G21G25G29R04R05R19
  21398987.141 6  21398982.074 8                   1039912.026 6    783587.697 8
                                
  24319322.203 5  24319319.691 9                   1918138.980 5   1479407.080 9
                                
  21718852.227 5                                  -2550760.444 5  -1862287.66346
                                  21718848.97346
  21724346.086 7  21724342.316 9                  -3631434.390 7  -2817189.037 9
                                
  23710759.672 5                                  -3213309.446 5  -2486286.32545
                                  23710754.78545
  20080100.852 7                                  -1590039.753 7  -1220889.98049
                                  20080095.82449
  23955781.555 5                                  -2551387.489 5  -1977712.85446
                                  23955776.26246
  23175444.078 6  23175444.031 9  23175442.863 9   1148729.903 6    883936.549 9
    847534.342 9                
  20019746.797 7  20019743.039 9                  -1983635.860 7  -1539906.383 9
                                
  18932951.344 8                                  -1495150.329 8  -1160989.316 9
                  18932951.723 7  18932956.281 9
  21392796.000 6                                  -4111742.099 6  -3182059.211 8
                  21392795.203 5  21392800.258 8
  19885383.633 5                                  -2716299.203 5  -2104377.437 9
                  19885382.602 4  19885385.938 9
 17 10 27 17  0 55.0000000  0 12G05G12G13G15G18G20G21G25G29R04R05R19
  21402025.031 6  21402020.254 9                   1055876.092 6    796027.201 9
                                
  24323161.313 4  24323160.305 8                   1938322.000 4   1495133.971 8
                                
  21718006.016 5                                  -2555207.052 5  -1865752.59346
                                  21718003.04746
  21722243.258 6  21722240.648 9                  -3642483.653 6  -2825798.948 9
                                
  23709053.344 5                                  -3222274.963 5  -2493272.42246
                                  23709048.86746
  20080368.016 7                                  -1588632.782 7  -1219793.64648
                                  20080363.03148
  23954719.156 5                                  -2556971.810 5  -1982064.22046
                                  23954713.52046
  23178656.203 6  23178656.836 9  23178656.590 9   1165610.968 6    897090.604 9
    860140.328 9                
  20019609.133 7  20019605.242 9                  -1984355.410 7  -1540467.057 9
                                
  18933464.383 7                                  -1492400.681 7  -1158850.672 9
                  18933464.176 7  18933469.242 9
  21390152.250 5                                  -4125866.192 5  -3193044.597 8
                  21390152.277 5  21390158.262 8
  19884292.328 6                                  -2722136.073 6  -2108917.190 9
                  19884291.297 6  19884294.258 9
 17 10 27 17  1  0.0000000  0 12G05G12G13G15G18G20G21G25G29R04R05R19
  21405064.656 6  21405059.449 9                   1071846.734 6    808471.895 9
                                
  24327001.953 6  24327000.125 8                   1958503.130 6   1510859.641 8
                                
  21717161.258 4                                  -2559639.920 4  -1869206.71946
                                  21717159.09846
  21720143.047 7  21720138.590 9                  -3653523.172 7  -2834401.096 9
                                
  23707348.531 5                                  -3231233.796 5  -2500253.33246
                                  23707344.00446
  20080638.094 7                                  -1587214.211 7  -1218688.26748
                                  20080632.82048
  23953656.367 5                                  -2562556.308 5  -1986415.79846
                                  23953650.73446
  23181869.391 6  23181869.781 9  23181868.188 9   1182498.026 6    910249.336 9
    872750.776 9                
  20019475.438 7  20019471.719 9                  -1985060.469 7  -1541016.487 9
                                
  18933982.359 8                                  -1489629.488 8  -1156695.313 9
                  18933982.855 7  18933987.148 9
  21387513.180 5                                  -4139977.979 5  -3204020.418 8
                  21387511.797 4  21387518.234 8
  19883201.391 6                                  -2727963.516 6  -2113449.672 9
                  19883201.301 5  19883205.625 9
 17 10 27 17  1  5.0000000  0 12G05G12G13G15G18G20G21G25G29R04R05R19
  21408104.266 6  21408099.863 9                   1087824.308 6    820921.939 9
                                
  24330840.336 5  24330839.527 8                   1978682.610 5   1526583.879 8
                                
  21716320.703 5                                  -2564058.422 5  -1872649.70746
                                  21716318.77746
  21718043.719 6  21718040.043 9                  -3664552.662 6  -2842995.532 9
                                
  23705643.875 5                                  -3240185.521 5  -2507228.66346
                                  23705640.12146
  20080910.586 7                                  -1585783.741 7  -1217573.61149
                                  20080905.39149
  23952593.195 5                                  -2568140.799 5  -1990767.31746
                                  23952588.03546
  23185084.188 6  23185084.168 9  23185083.074 9   1199391.313 6    923412.911 9
    885365.865 9                
  20019344.063 7  20019340.211 9                  -1985750.686 7  -1541554.295 9
                                
  18934504.172 8                                  -1486836.391 8  -1154522.906 9
                  18934503.492 7  18934508.156 9
  21384875.977 6                                  -4154077.052 6  -3214986.350 8
                  21384875.652 5  21384880.324 8
  19882114.742 6                                  -2733781.089 6  -2117974.429 9
                  19882113.477 5  19882118.395 9
 17 10 27 17  1 10.0000000  0 12G05G12G13G15G18G20G21G25G29R04R05R19
  21411146.211 6  21411141.684 9                   1103808.567 6    833377.199 9
                                
  24334680.000 5  24334680.328 8                   1998860.104 5   1542306.472 8
                                
  21715482.922 5                                  -2568463.113 5  -1876081.81846
                                  21715480.39846
  21715946.391 6  21715943.465 9                  -3675572.295 6  -2851582.302 9
                                
  23703943.102 5                                  -3249130.623 5  -2514198.91646
                                  23703938.82846
  20081184.750 7                                  -1584341.782 7  -1216449.97948
                                  20081179.49648
  23951530.219 5                                  -2573725.550 5  -1995119.10446
                                  23951525.73846
  23188299.430 6  23188299.590 9  23188298.191 9   1216290.451 6    936581.076 9
    897985.369 9                
  20019215.664 8  20019211.711 9                  -1986426.477 8  -1542080.837 9
                                
  18935030.281 8                                  -1484021.773 8  -1152333.705 9
                  18935029.836 7  18935034.172 9
  21382241.273 6                                  -4168163.869 6  -3225942.813 8
                  21382240.828 6  21382245.066 8
  19881028.375 6                                  -2739589.352 6  -2122491.992 9
                  19881027.227 6  19881032.598 9
 17 10 27 17  1 15.0000000  0 12G05G12G13G15G18G20G21G25G29R04R05R19
  21414189.289 6  21414184.672 8                   1119799.476 6    845837.651 8
                                
  24338517.805 4  24338519.773 8                   2019035.842 4   1558027.876 8
                                
  21714646.953 5                                  -2572853.578 5  -1879503.10046
                                  21714644.84846
  21713852.039 6  21713847.914 9                  -3686581.960 6  -2860161.241 9
                                
  23702243.023 5                                  -3258068.564 5  -2521163.52146
                                  23702237.98446
  20081462.047 7                                  -1582887.946 7  -1215317.15048
                                  20081455.93448
  23950467.508 5                                  -2579310.189 5  -1999470.72046
                                  23950462.52746
  23191516.875 6  23191516.996 9  23191514.508 9   1233195.834 6    949754.103 9
    910609.489 9                
  20019090.273 7  20019085.930 9                  -1987087.361 7  -1542595.868 9
                                
  18935559.070 7                                  -1481185.281 7  -1150127.613 9
                  18935559.332 7  18935564.289 9
  21379608.273 6                                  -4182238.016 6  -3236889.308 8
                  21379607.008 5  21379612.340 8
  19879943.367 5                                  -2745387.636 5  -2127001.736 9
                  19879942.805 4  19879948.902 9
 17 10 27 17  1 20.0000000  0 12G05G12G13G15G18G20G21G25G29R04R05R19
  21417233.172 6  21417228.559 8                   1135797.321 6    858303.491 8
                                
  24342357.117 5  24342357.859 8                   2039209.854 5   1573747.862 8
                                
  21713813.836 4                                  -2577229.832 4  -1882913.17446
                                  21713811.09046
  21711758.695 6  21711755.664 9                  -3697581.589 6  -2868732.343 9
                                
  23700541.883 4                                  -3266999.647 4  -2528122.76646
                                  23700538.51646
  20081740.336 7                                  -1581422.317 7  -1214175.09249
                                  20081735.28949
  23949405.297 4                                  -2584894.949 4  -2003822.48146
                                  23949400.31346
  23194734.820 6  23194735.789 9  23194733.957 9   1250107.361 6    962931.910 9
    923238.227 9                
  20018967.016 7  20018963.461 9                  -1987733.508 7  -1543099.344 9
                                
  18936093.586 8                                  -1478326.975 8  -1147904.449 9
                  18936093.496 7  18936098.000 9
  21376976.359 6                                  -4196299.421 6  -3247826.020 8
                  21376975.445 5  21376980.621 8
  19878861.734 5                                  -2751176.174 5  -2131503.955 9
                  19878860.469 5  19878866.973 9
 17 10 27 17  1 25.0000000  0 12G05G12G13G15G18G20G21G25G29R04R05R19
  21420278.625 6  21420273.961 9                   1151801.543 6    870774.345 9
                                
  24346197.727 5  24346196.820 8                   2059381.649 5   1589466.189 8
                                
  21712983.820 5                                  -2581592.266 5  -1886312.41646
                                  21712980.96146
  21709667.031 6  21709664.980 9                  -3708571.599 6  -2877295.986 9
                                
  23698844.578 5                                  -3275924.036 5  -2535076.81146
                                  23698839.84446
  20082021.680 7                                  -1579945.274 7  -1213024.16048
                                  20082016.38348
  23948342.570 5                                  -2590479.951 5  -2008174.41846
                                  23948336.98046
  23197954.086 5  23197954.445 9  23197954.094 9   1267024.587 5    976114.138 9
    935871.186 9                
  20018846.805 7  20018843.133 9                  -1988365.297 7  -1543591.665 9
                                
  18936631.016 7                                  -1475447.281 7  -1145664.700 9
                  18936631.395 7  18936635.637 9
  21374348.563 6                                  -4210348.688 6  -3258753.209 8
                  21374348.117 5  21374353.246 8
  19877781.773 5                                  -2756955.354 5  -2135998.834 9
                  19877780.859 4  19877786.367 9
 17 10 27 17  1 30.0000000  0 12G05G12G13G15G18G20G21G25G29R04R05R19
  21423326.094 6  21423321.238 9                   1167812.553 6    883250.414 9
                                
  24350034.500 5  24350035.602 8                   2079551.627 5   1605182.997 8
                                
  21712156.844 3                                  -2585940.432 3  -1889700.63745
                                  21712153.79345
  21707578.633 7  21707575.859 9                  -3719551.489 7  -2885851.745 9
                                
  23697147.391 5                                  -3284841.393 5  -2542025.42346
                                  23697143.16446
  20082304.711 7                                  -1578456.458 7  -1211864.02648
                                  20082299.50048
  23947278.898 5                                  -2596065.011 5  -2012526.41346
                                  23947275.14546
  23201175.313 6  23201174.820 9  23201173.637 9   1283947.887 6    989301.122 9
    948508.713 9                
  20018729.398 7  20018725.547 9                  -1988982.229 7  -1544072.387 9
                                
  18937172.930 7                                  -1472545.893 7  -1143408.062 9
                  18937172.250 7  18937176.926 9
  21371723.609 6                                  -4224385.290 6  -3269670.564 8
                  21371722.227 5  21371727.117 8
  19876704.164 5                                  -2762724.833 5  -2140486.241 9
                  19876702.664 4  19876708.063 9
 17 10 27 17  1 35.0000000  0 12G05G12G13G15G18G20G21G25G29R04R05R19
  21426373.391 6  21426368.859 8                   1183829.986 6    895731.543 8
                                
  24353872.813 5  24353871.508 8                   2099719.616 5   1620898.396 8
                                
  21711333.063 5                                  -2590274.774 5  -1893078.03045
                                  21711329.33245
  21705490.977 7  21705486.801 9                  -3730521.688 7  -2894399.913 9
                                
  23695452.344 5                                  -3293752.079 5  -2548968.76846
                                  23695447.59846
  20082590.023 7                                  -1576956.170 7  -1210694.97649
                                  20082585.16449
  23946216.727 5                                  -2601650.419 5  -2016878.65946
                                  23946212.18846
  23204396.531 6  23204396.195 9  23204395.094 9   1300876.959 6   1002492.597 9
    961150.539 9                
  20018615.016 7  20018610.629 9                  -1989584.708 7  -1544541.851 9
                                
  18937718.680 7                                  -1469622.969 7  -1141134.654 9
                  18937718.355 7  18937723.379 9
  21369099.578 6                                  -4238409.681 6  -3280578.458 8
                  21369099.133 5  21369103.609 8
  19875627.250 6                                  -2768484.840 6  -2144966.284 9
                  19875625.633 4  19875631.480 9
 17 10 27 17  1 40.0000000  0 12G05G12G13G15G18G20G21G25G29R04R05R19
  21429423.438 6  21429418.137 8                   1199854.063 6    908217.826 8
                                
  24357710.742 5  24357709.539 8                   2119885.551 5   1636612.124 8
                                
  21710509.516 4                                  -2594595.026 4  -1896444.37445
                                  21710506.89845
  21703405.258 6  21703401.746 9                  -3741481.977 6  -2902940.363 9
                                
  23693757.117 5                                  -3302655.901 5  -2555906.86846
                                  23693753.02746
  20082877.766 7                                  -1575444.264 7  -1209516.87049
                                  20082872.35549
  23945153.891 5                                  -2607235.931 5  -2021231.01646
                                  23945149.34046
  23207618.891 5  23207618.094 9  23207617.512 9   1317811.966 5   1015688.698 9
    973796.775 9                
  20018503.164 7  20018498.859 9                  -1990172.487 7  -1544999.869 9
                                
  18938268.797 8                                  -1466678.569 8  -1138844.587 9
                  18938268.941 7  18938273.539 9
  21366478.859 6                                  -4252421.396 6  -3291476.448 8
                  21366478.180 5  21366482.684 8
  19874551.547 5                                  -2774235.283 5  -2149438.805 9
                  19874549.461 5  19874556.121 9
 17 10 27 17  1 45.0000000  0 13G05G12G13G15G18G20G21G25G29R04R05R18
                                R19
  21432473.156 6  21432468.832 8                   1215884.451 6    920709.042 8
                                
  24361547.117 5  24361546.660 7                   2140049.220 5   1652324.069 7
                                
  21709689.516 3                                  -2598901.434 3  -1899800.01045
                                  21709687.45345
  21701321.422 7  21701318.273 9                  -3752432.558 7  -2911473.288 9
                                
  23692064.969 5                                  -3311553.118 5  -2562839.75646
                                  23692060.36746
  20083167.461 7                                  -1573921.021 7  -1208329.92349
                                  20083162.40649
  23944090.875 5                                  -2612821.904 5  -2025583.70946
                                  23944086.38346
  23210843.000 6  23210842.242 9  23210842.273 9   1334752.526 6   1028889.139 9
    986447.182 9                
  20018394.055 7  20018389.762 9                  -1990745.895 7  -1545446.669 9
                                
  18938821.391 8                                  -1463712.825 8  -1136537.896 9
                  18938822.121 7  18938826.648 9
  21363859.578 5                                  -4266421.044 5  -3302365.015 8
                  21363858.781 4  21363864.363 8
  20341800.000 1                                  -1557891.82511
                  20341796.742 1
  19873478.891 6                                  -2779976.189 6  -2153903.942 9
                  19873477.859 5  19873483.121 9
 17 10 27 17  1 50.0000000  0 13G05G12G13G15G18G20G21G25G29R04R05R18
                                R19
  21435524.695 6  21435520.449 8                   1231921.271 6    933205.273 8
                                
  24365384.094 5  24365382.871 8                   2160210.755 5   1668034.416 8
                                
  21708873.188 3                                  -2603193.867 3  -1903144.76345
                                  21708870.45345
  21699239.594 6  21699235.902 9                  -3763373.333 6  -2919998.589 9
                                
  23690373.258 5                                  -3320443.662 5  -2569767.44746
                                  23690368.55946
  20083459.750 7                                  -1572386.287 7  -1207134.03448
                                  20083454.47348
  23943028.055 5                                  -2618408.207 5  -2029936.67046
                                  23943024.21146
  23214067.695 6  23214066.941 9  23214065.855 9   1351698.846 6   1042094.046 9
    999101.890 9                
  20018287.414 7  20018283.125 9                  -1991304.758 7  -1545882.120 9
                                
  18939379.914 8                                  -1460725.463 8  -1134214.401 9
                  18939379.941 7  18939384.563 9
  21361242.055 5                                  -4280408.074 5  -3313243.796 8
                  21361241.141 4  21361247.539 8
  20343787.758 3                                  -1547254.276 3  -1242048.23818
                  20343786.492 2  20343791.336 8
  19872406.961 6                                  -2785707.655 6  -2158361.799 9
                  19872406.988 6  19872412.133 9
 17 10 27 17  1 55.0000000  0 13G05G12G13G15G18G20G21G25G29R04R05R18
                                R19
  21438577.719 6  21438573.090 8                   1247963.604 6    945705.759 8
                                
  24369220.039 6  24369219.301 8                   2180369.247 6   1683742.335 8
                                
  21708059.227 4                                  -2607473.245 4  -1906479.32945
                                  21708056.31345
  21697159.359 6  21697155.910 9                  -3774305.196 6  -2928516.916 9
                                
  23688683.008 5                                  -3329328.321 5  -2576690.59046
                                  23688677.46146
  20083753.758 7                                  -1570840.936 7  -1205929.86748
                                  20083748.72748
  23941964.094 5                                  -2623995.678 5  -2034290.53946
                                  23941960.65246
  23217293.406 6  23217292.746 9  23217291.383 9   1368650.005 6   1055302.762 9
   1011760.223 9                
  20018183.742 7  20018179.188 9                  -1991849.993 7  -1546306.977 9
                                
  18939941.742 8                                  -1457717.794 8  -1131875.106 9
                  18939941.770 7  18939946.555 9
  21358628.102 5                                  -4294383.679 5  -3324113.715 8
                  21358627.070 4  21358633.359 8
  20345784.664 4                                  -1536603.662 4  -1233764.458 8
                  20345782.813 2  20345787.797 8
  19871338.656 6                                  -2791430.448 6  -2162812.847 9
                  19871336.805 6  19871342.309 9
 17 10 27 17  2  0.0000000  0 13G05G12G13G15G18G20G21G25G29R04R05R18
                                R19
  21441631.859 6  21441626.914 8                   1264012.410 6    958211.309 8
                                
  24373055.813 5  24373057.785 8                   2200525.660 5   1699448.607 8
                                
  21707248.883 4                                  -2611738.572 4  -1909803.01845
                                  21707244.90245
  21695080.406 7  21695077.285 9                  -3785227.071 7  -2937027.467 9
                                
  23686993.500 5                                  -3338206.222 5  -2583608.38846
                                  23686988.18446
  20084049.789 7                                  -1569284.067 7  -1204716.73048
                                  20084044.72748
  23940901.000 5                                  -2629583.395 5  -2038644.58747
                                  23940897.63347
  23220520.086 6  23220519.676 9  23220518.473 9   1385606.934 6   1068515.949 9
   1024422.854 9                
  20018082.602 7  20018078.266 9                  -1992380.581 7  -1546720.419 9
                                
  18940507.688 8                                  -1454688.514 8  -1129519.007 9
                  18940507.363 7  18940511.938 9
  21356015.102 5                                  -4308346.797 5  -3334973.925 8
                  21356014.188 4  21356021.129 8
  20347781.461 3                                  -1525939.174 3  -1225469.888 8
                  20347780.547 2  20347785.176 8
  19870270.203 7                                  -2797143.674 7  -2167256.487 9
                  19870269.055 6  19870273.969 9
 17 10 27 17  2  5.0000000  0 13G05G12G13G15G18G20G21G25G29R04R05R18
                                R19
  21444686.031 6  21444682.027 8                   1280067.892 6    970722.104 8
                                
  24376892.047 6  24376891.695 8                   2220680.128 6   1715153.339 8
                                
  21706437.922 4                                  -2615989.612 4  -1913115.48245
                                  21706434.94145
  21693004.172 7  21693000.742 9                  -3796138.843 7  -2945530.143 9
                                
  23685305.211 5                                  -3347077.168 5  -2590520.80946
                                  23685299.96946
  20084348.797 7                                  -1567715.479 7  -1203494.45948
                                  20084343.19948
  23939838.625 5                                  -2635171.175 5  -2042998.70647
                                  23939834.40647
  23223747.961 6  23223747.418 9  23223746.707 9   1402569.846 6   1081733.799 9
   1037089.944 9                
  20017984.719 7  20017980.238 9                  -1992896.350 7  -1547122.306 9
                                
  18941077.641 8                                  -1451637.489 8  -1127145.975 9
                  18941077.195 7  18941081.742 9
  21353405.414 5                                  -4322297.170 5  -3345824.208 8
                  21353404.969 4  21353411.891 8
  20349781.320 2                                  -1515260.618 2  -1217164.350 8
                  20349782.402 2  20349784.793 8
  19869203.516 6                                  -2802846.969 6  -2171692.372 9
                  19869203.191 6  19869207.828 9
 17 10 27 17  2 10.0000000  0 13G05G12G13G15G18G20G21G25G29R04R05R18
                                R19
  21447743.430 6  21447738.844 8                   1296129.589 6    983237.699 8
                                
  24380726.258 6  24380726.469 8                   2240832.313 6   1730856.358 8
                                
  21705632.195 4                                  -2620226.850 4  -1916417.22145
                                  21705628.54745
  21690929.523 7  21690926.789 9                  -3807040.920 7  -2954025.218 9
                                
  23683617.930 5                                  -3355941.527 5  -2597428.12346
                                  23683613.25446
  20084648.836 7                                  -1566135.609 7  -1202263.38948
                                  20084644.06348
  23938774.547 5                                  -2640759.405 5  -2047353.17246
                                  23938770.66446
  23226977.164 6  23226976.840 9  23226976.199 9   1419538.237 6   1094955.913 9
   1049761.141 9                
  20017889.297 7  20017884.844 9                  -1993397.739 7  -1547512.995 9
                                
  18941651.680 8                                  -1448565.301 8  -1124756.504 9
                  18941650.883 7  18941655.203 9
  21350798.117 5                                  -4336235.281 5  -3356664.940 8
                  21350797.320 4  21350804.953 8
  20351785.703 3                                  -1504568.399 3  -1208848.188 8
                  20351783.031 2  20351787.754 8
  19868139.711 6                                  -2808540.810 6  -2176120.942 9
                  19868139.031 6  19868143.461 9
 17 10 27 17  2 15.0000000  0 13G05G12G13G15G18G20G21G25G29R04R05R18
                                R19
  21450801.016 6  21450796.996 8                   1312197.514 6    995758.160 8
                                
  24384560.859 6  24384561.066 8                   2260982.023 6   1746557.424 8
                                
  21704829.125 5                                  -2624450.318 5  -1919708.24745
                                  21704824.94145
  21688856.813 7  21688853.422 9                  -3817933.342 7  -2962512.804 9
                                
  23681932.680 5                                  -3364799.379 5  -2604330.34946
                                  23681927.39146
  20084951.797 7                                  -1564544.476 7  -1201023.54149
                                  20084946.98449
  23937711.031 5                                  -2646348.207 5  -2051708.06046
                                  23937707.43846
  23230206.820 6  23230207.172 9  23230206.297 9   1436512.054 6   1108182.256 9
   1062436.387 9                
  20017796.836 7  20017792.043 9                  -1993884.758 7  -1547892.485 9
                                
  18942229.023 8                                  -1445471.848 8  -1122350.479 9
                  18942229.285 7  18942232.973 9
  21348193.422 5                                  -4350161.236 5  -3367496.243 8
                  21348192.859 4  21348199.820 8
  20353789.656 3                                  -1493862.581 3  -1200521.438 8
                  20353787.336 1  20353792.988 8
  19867077.375 7                                  -2814225.374 7  -2180542.246 9
                  19867077.402 6  19867081.008 9
 17 10 27 17  2 20.0000000  0 13G05G12G13G15G18G20G21G25G29R04R05R18
                                R19
  21453859.695 6  21453855.418 8                   1328271.697 6   1008283.507 8
                                
  24388394.641 6  24388393.957 8                   2281129.451 6   1762256.658 8
                                
  21704027.469 5                                  -2628659.900 5  -1922988.43845
                                  21704023.51645
  21686786.109 7  21686782.441 9                  -3828815.995 7  -2970992.800 9
                                
  23680247.953 5                                  -3373650.659 5  -2611227.46246
                                  23680243.30946
  20085257.047 7                                  -1562941.972 7  -1199774.85148
                                  20085251.36748
  23936647.180 6                                  -2651937.455 6  -2056063.31447
                                  23936643.58247
  23233437.750 6  23233437.801 9  23233437.750 9   1453491.446 6   1121412.961 9
   1075115.794 9                
  20017706.266 7  20017701.809 9                  -1994357.283 7  -1548260.688 9
                                
  18942810.633 8                                  -1442357.040 8  -1119927.841 9
                  18942811.012 7  18942814.906 9
  21345590.930 5                                  -4364074.730 5  -3378317.871 7
                  21345590.957 4  21345596.578 7
  20355796.023 2                                  -1483143.019 2  -1192183.983 8
                  20355795.699 1  20355801.988 8
  19866016.859 7                                  -2819900.483 7  -2184956.220 9
                  19866015.594 6  19866019.461 9
 17 10 27 17  2 25.0000000  0 13G05G12G13G15G18G20G21G25G29R04R05R18
                                R19
  21456919.656 6  21456915.285 8                   1344352.162 6   1020813.728 8
                                
  24392227.563 6  24392227.180 8                   2301274.493 6   1777954.078 8
                                
  21703229.414 5                                  -2632855.480 5  -1926257.70745
                                  21703225.33645
  21684716.797 7  21684713.441 9                  -3839688.858 7  -2979465.128 9
                                
  23678564.320 5                                  -3382495.271 5  -2618119.34746
                                  23678560.32446
  20085563.820 7                                  -1561328.166 7  -1198517.33848
                                  20085558.57848
  23935583.844 5                                  -2657527.235 5  -2060418.99446
                                  23935579.76246
  23236669.609 6  23236669.973 9  23236670.004 9   1470476.375 6   1134647.942 9
   1087799.328 9                
  20017619.102 7  20017615.023 9                  -1994815.324 7  -1548617.596 9
                                
  18943396.703 8                                  -1439220.978 8  -1117488.675 9
                  18943396.258 7  18943400.324 9
  21342991.195 5                                  -4377975.918 5  -3389129.921 8
                  21342990.398 4  21342995.559 8
  20357807.867 1                                  -1472409.754 1  -1183835.896 8
                  20357808.363 1  20357813.723 8
  19864958.078 7                                  -2825566.049 7  -2189362.779 9
                  19864955.758 6  19864959.813 9
